objectid;cod_ibge;cod_ses;cod_regiao_uf;macrorregiao_saude;regiao_saude;nome_regiao_saude;crs;municipio;cod_cnes;nome_da_unidade;telefone;nome_razao_social;cod_tipo_un;ds_tipo_un;ds_natureza;tp_gestao;latitude;longitude;equipamento;complemento;cep;endereco;adulto_leito_uti;status
180;4316006;431600;462;Metropolitana;6;REGIÃO 06 - VALE DO PARANHANA E COSTA SERRA;01ª CRS;Rolante;2257564;FUNDACAO HOSPITALAR DE ROLANTE;;FUNDACAO HOSPITALAR DE ROLANTE;5;HOSPITAL GERAL;ENTIDADES SEM FINS LUCRATIVOS;ESTADUAL;-29.65307;-50.575823;Hospital; ;95690-000;RUA CARLOS HUFF, 150 - CENTRO;;ATIVO
137;4315008;431500;470;Missioneira;14;REGIÃO 14 - FRONTEIRA NOROESTE;14ª CRS;Porto Lucena;2250810;HOSPITAL SAO JOSE PORTO LUCENA RS;;SOCIEDADE HOSPITAL SAO JOSE;5;HOSPITAL GERAL;ENTIDADES SEM FINS LUCRATIVOS;DUPLA;-27.857193;-55.011288;Hospital;CASA;98980-000;AVN ALMIRANTE GUILHOBEL, 87 - CENTRO;;ATIVO
172;4300646;430064;471;Norte;15;REGIÃO 15 - CAMINHO DAS ÁGUAS;02ª CRS;Ametista do Sul;2228629;HOSPITAL SAO GABRIEL AMETISTA DO SUL;;SOCIEDADE HOSPITALAR S GABRIEL AMETISTA DO SUL;5;HOSPITAL GERAL;ENTIDADES SEM FINS LUCRATIVOS;ESTADUAL;-27.366095;-53.176949;Hospital; ;98465-000;RUA JOAO DE LUCA, 339 - JOAO DE LUCA;;ATIVO
174;4313409;431340;463;Metropolitana;7;REGIÃO 07 - VALE DOS SINOS;01ª CRS;Novo Hamburgo;2232146;FUNDACAO DE SAUDE PUBLICA DE NOVO HAMBURGO FSNH;;FUNDACAO DE SAUDE PUBLICA DE NOVO HAMBURGO FSNH;5;HOSPITAL GERAL;ADMINISTRAÇÃO PÚBLICA;MUNICIPAL;-29.675048;-51.131987;Hospital; ;93310-003;AVN PEDRO ADAMS FILHO, 6520 - OPERARIO;10.0;ATIVO
191;4307005;430700;472;Norte;16;REGIÃO 16 - ALTO URUGUAI GAÚCHO;11ª CRS;Erechim;9142118;SANTA MONICA HOSPITAL;;HOSPITAL SANTA MONICA LTDA;5;HOSPITAL GERAL;ENTIDADES EMPRESARIAIS;MUNICIPAL;-27.636636;-52.282731;Hospital;SALA 103;99711-010;RUA ITALIA, 878 - ESPIRITO SANTO;;ATIVO
208;4314704;431470;471;Norte;15;REGIÃO 15 - CAMINHO DAS ÁGUAS;02ª CRS;Planalto;2228556;HOSPITAL MEDIANEIRA PLANALTO;;ASSOCIACAO BENEFICIENTE NOSSA SENHORA MEDIANEIRA;5;HOSPITAL GERAL;ENTIDADES SEM FINS LUCRATIVOS;ESTADUAL;-27.333406;-53.061844;Hospital; ;98470-000;RUA HUMBERTO DE CAMPOS, 661 - CCENTRO;;ATIVO
214;4318200;431820;462;Metropolitana;6;REGIÃO 06 - VALE DO PARANHANA E COSTA SERRA;01ª CRS;São Francisco de Paula;2227770;HOSPITAL SAO FRANCISCO DE PAULA;;HOSPITAL SAO FRANCISCO DE PAULA;5;HOSPITAL GERAL;ENTIDADES SEM FINS LUCRATIVOS;ESTADUAL;-29.448053;-50.583489;Hospital; ;95400-000;RUA FREDERICO TEDESCO, 117 - CENTRO;;ATIVO
224;4316907;431690;457;Centro-Oeste;1;REGIÃO 01 - VERDES CAMPOS;04ª CRS;Santa Maria;2244292;HOSPITAL SAO FRANCISCO DE ASSIS SANTA MARIA;;ASSOCIACAO FRANCISCANA DE ASSISTENCIA A SAUDE;5;HOSPITAL GERAL;ENTIDADES SEM FINS LUCRATIVOS;MUNICIPAL;-29.69565;-53.791378;Hospital; ;97060-360;RUA JOANA DARC, 465 - N S DE LOURDES;10.0;ATIVO
225;4308003;430800;457;Centro-Oeste;1;REGIÃO 01 - VERDES CAMPOS;04ª CRS;Faxinal do Soturno;2244101;HOSPITAL DE CARIDADE SAO ROQUE FAXINAL DO SOTURNO;;HOSPITAL DE CARIDADE SAO ROQUE;5;HOSPITAL GERAL;ENTIDADES SEM FINS LUCRATIVOS;ESTADUAL;-29.576934;-53.438927;Hospital; ;97220-000;RUA DONA CECI LEITE COSTA, 1266 - CENTRO;;ATIVO
232;4316907;431690;457;Centro-Oeste;1;REGIÃO 01 - VERDES CAMPOS;04ª CRS;Santa Maria;9575936;HOSPITAL REGIONAL DE SANTA MARIA;;SECRETARIA DA SAUDE;5;HOSPITAL GERAL;ADMINISTRAÇÃO PÚBLICA;ESTADUAL;-29.705929;-53.863242;Hospital; ;97030-220;RUA FLORIANOPOLIS, 1041 - PINHEIRO MACHADO;;ATIVO
244;4310801;431080;463;Metropolitana;7;REGIÃO 07 - VALE DOS SINOS;01ª CRS;Ivoti;2232189;HOSPITAL SAO JOSE IVOTI;;ASSOCIACAO CONGREGACAO DE SANTA CATARINA;5;HOSPITAL GERAL;ENTIDADES SEM FINS LUCRATIVOS;ESTADUAL;-29.591931;-51.160288;Hospital; ;93900-000;AV PRESIDENTE LUCENA, 3598 - CENTRO;;ATIVO
254;4314209;431420;477;Sul;21;REGIÃO 21 - SUL;03ª CRS;Pedro Osório;2233339;SANTA CASA DE MISERICORDIA DE PEDRO OSORIO;;SANTA CASA DE MISERICORDIA DE PEDRO OSORIO;5;HOSPITAL GERAL;ENTIDADES SEM FINS LUCRATIVOS;ESTADUAL;-31.864258;-52.823122;Hospital; ;96360-000;RUA ARZELINDO FERREIRA, 33 - CENTRO;;ATIVO
255;4320107;432010;476;Norte;20;REGIÃO 20 - ROTA DA PRODUÇÃO;15ª CRS;Sarandi;2235404;HOSPITAL COMUNITARIO SARANDI;;HOSPITAL COMUNITARIO SARANDI;5;HOSPITAL GERAL;ENTIDADES SEM FINS LUCRATIVOS;ESTADUAL;-27.941057;-52.927805;Hospital;CAS;99560-000;COSMO FAVRETTO, 676 - CENTRO;;ATIVO
260;4301602;430160;478;Sul;22;REGIÃO 22 - PAMPA;07ª CRS;Bagé;2261987;SANTA CASA DE CARIDADE DE BAGE;;SANTA CASA DE CARIDADE DE BAGE;5;HOSPITAL GERAL;ENTIDADES SEM FINS LUCRATIVOS;ESTADUAL;-31.326318;-54.111048;Hospital;CASA;96400-130;RUA GOMES CARNEIRO, 1350 - CENTRO;;ATIVO
264;4313904;431390;469;Missioneira;13;REGIÃO 13 - DIVERSIDADE;17ª CRS;Panambi;2254956;HOSPITAL PANAMBI;;SOCIEDADE HOSPITAL PANAMBI;5;HOSPITAL GERAL;ENTIDADES SEM FINS LUCRATIVOS;MUNICIPAL;-28.289957;-53.49228;Hospital; ;98280-000;RUA BENJAMIN CONSTANT, 490 - MEDIANEIRA;;ATIVO
284;4314902;431490;466;Metropolitana;10;REGIÃO 10 - CAPITAL E VALE DO GRAVATAÍ;01ª CRS;Porto Alegre;3006522;HOSPITAL MOINHOS DE VENTO;;ASSOCIACAO HOSPITALAR MOINHOS DE VENTO;5;HOSPITAL GERAL;ENTIDADES SEM FINS LUCRATIVOS;MUNICIPAL;-30.02631;-51.209105;Hospital; ;90035-001;RUA RAMIRO BARCELOS, 910 - MOINHOS DE VENTO;56.0;ATIVO
308;4320800;432080;475;Norte;19;REGIÃO 19 - BOTUCARAÍ;06ª CRS;Soledade;2246961;HOSPITAL FREI CLEMENTE - SOLEDADE;;HOSPITAL DE CARIDADE FREI CLEMENTE;5;HOSPITAL GERAL;ENTIDADES SEM FINS LUCRATIVOS;ESTADUAL;-28.809979;-52.510941;Hospital; ;99300-000;AV PINHEIRO MACHADO, 828 - CENTRO;;ATIVO
293;4312658;431265;473;Norte;17;REGIÃO 17 - PLANALTO;06ª CRS;Não-Me-Toque;2246910;HOSPITAL ALTO JACUI - NAO ME TOQUE;;HOSPITAL BENEFICENCIA ALTO JACUI;5;HOSPITAL GERAL;ENTIDADES SEM FINS LUCRATIVOS;ESTADUAL;-28.460816;-52.821731;Hospital; ;99470-000;AV DR WALDOMIRO GRAEFF, 810 - CENTRO;;ATIVO
305;4318804;431880;477;Sul;21;REGIÃO 21 - SUL;03ª CRS;São Lourenço do Sul;2233312;SANTA CASA DE MISERIC S LOURENCO DO SUL;;SANTA CASA DE MISERICORDIA DE SAO LOURENCO DO SUL;5;HOSPITAL GERAL;ENTIDADES SEM FINS LUCRATIVOS;ESTADUAL;-31.364671;-51.97842;Hospital;CASA;96170-000;RUA ALMIRANTE ABREU, 437 - CENTRO;;ATIVO
309;4314027;431402;457;Centro-Oeste;1;REGIÃO 01 - VERDES CAMPOS;04ª CRS;Paraíso do Sul;2234467;UNIDADE MISTA HOSPITAL PARAISO;;HOSPITAL PARAISO SOCIEDADE ASSISTENCIAL E BENEFICENTE;15;UNIDADE MISTA;ENTIDADES SEM FINS LUCRATIVOS;ESTADUAL;-29.67041;-53.144041;Hospital; ;96530-000;RUA THEODOR WURTH, 208 - VILA PARAISO;;ATIVO
318;4314902;431490;466;Metropolitana;10;REGIÃO 10 - CAPITAL E VALE DO GRAVATAÍ;01ª CRS;Porto Alegre;6295320;AESC HOSPITAL SANTA ANA;;ASSOCIACAO EDUCADORA SAO CARLOS AESC;5;HOSPITAL GERAL;ENTIDADES SEM FINS LUCRATIVOS;MUNICIPAL;-30.086151;-51.206855;Hospital; ;91720-260;RUA CLEMENCIANO BARNASQUE, 733 - TERESOPOLIS;;ATIVO
329;4303004;430300;483;Vales;27;REGIÃO 27 - JACUÍ CENTRO;08ª CRS;Cachoeira do Sul;2266474;HOSPITAL DE CARIDADE E BENEFICENCIA;;HOSPITAL DE CARIDADE E BENEFICENCIA;5;HOSPITAL GERAL;ENTIDADES SEM FINS LUCRATIVOS;MUNICIPAL;-30.045546;-52.894773;Hospital; ;96508-000;RUA SALDANHA MARINHO, 48 - CENTRO;10.0;ATIVO
332;4314100;431410;473;Norte;17;REGIÃO 17 - PLANALTO;06ª CRS;Passo Fundo;2244969;HOSPITAL DE OLHOS LIONS PASSO FUNDO;;FUNDACAO HOSPITALAR OFTALMOLOGICA UNIVERSITARIA LIONS;7;HOSPITAL ESPECIALIZADO;ENTIDADES SEM FINS LUCRATIVOS;ESTADUAL;-28.233;-52.383987;Hospital;PREDIO 2 QUADRA K;99052-900;CAMPUS I,  - SAO JOSE;;ATIVO
336;4317301;431730;477;Sul;21;REGIÃO 21 - SUL;03ª CRS;Santa Vitória do Palmar;2233398;IRMANDADE S CASA DE MISERICORDIA DE S V PALMAR;;IRMANDADADE DA S CASA DE MISERICORDIA DE SV PALMAR;5;HOSPITAL GERAL;ENTIDADES SEM FINS LUCRATIVOS;ESTADUAL;-33.524364;-53.372112;Hospital; ;96230-000;DOUTOR ALIPIO SANTIAGO CORREA, 55 - CENTRO;;ATIVO
343;4313300;431330;481;Serra;25;REGIÃO 25 - VINHEDOS E BASALTO;05ª CRS;Nova Prata;2241161;HOSPITAL SAO JOAO BATISTA;;HOSPITAL SAO JOAO BATISTA;5;HOSPITAL GERAL;ENTIDADES SEM FINS LUCRATIVOS;MUNICIPAL;-28.784367;-51.612636;Hospital; ;95320-000;AV CONEGO PERES, 765 - CENTRO;;ATIVO
347;4314100;431410;473;Norte;17;REGIÃO 17 - PLANALTO;06ª CRS;Passo Fundo;2246988;HOSPITAL SAO VICENTE DE PAULO PASSO FUNDO;;ASSOCIACAO HOSPITALAR BENEFICENTE SAO VICENTE DE PAULO;5;HOSPITAL GERAL;ENTIDADES SEM FINS LUCRATIVOS;ESTADUAL;-28.259953;-52.413386;Hospital; ;99010-080;RUA TEIXEIRA SOARES, 808 - CENTRO;42.0;ATIVO
348;4314902;431490;466;Metropolitana;10;REGIÃO 10 - CAPITAL E VALE DO GRAVATAÍ;01ª CRS;Porto Alegre;2237598;HOSPITAL DIVINA PROVIDENCIA;;SOCIEDADE SULINA DIVINA PROVIDENCIAHOSPITAL DIVINA PROVIDEN;5;HOSPITAL GERAL;ENTIDADES SEM FINS LUCRATIVOS;MUNICIPAL;-30.084735;-51.18811;Hospital;GLORIA;91712-160;RUA DA GRUTA, 145 - CASCATA;12.0;ATIVO
349;4314902;431490;466;Metropolitana;10;REGIÃO 10 - CAPITAL E VALE DO GRAVATAÍ;01ª CRS;Porto Alegre;3881660;CLINICA PINEL;;ASSOCIACAO ENCARNACION BLAYA;7;HOSPITAL ESPECIALIZADO;ENTIDADES SEM FINS LUCRATIVOS;MUNICIPAL;-30.0505398;-51.2065476;Hospital;;90040-373;RUA SANTANA, 1455 - SANTANA;;ATIVO
356;4314407;431440;477;Sul;21;REGIÃO 21 - SUL;03ª CRS;Pelotas;2252376;HOSPITAL ESPIRITA DE PELOTAS;;HOSPITAL ESPIRITA DE PELOTAS;7;HOSPITAL ESPECIALIZADO;ENTIDADES SEM FINS LUCRATIVOS;MUNICIPAL;-31.752;-52.305155;Hospital;;96085-470;AV DOMINGOS DE ALMEIDA, 2969 - AREAL;;ATIVO
361;4314902;431490;466;Metropolitana;10;REGIÃO 10 - CAPITAL E VALE DO GRAVATAÍ;01ª CRS;Porto Alegre;2906163;SAO PIETRO SERVICOS DE SAUDE LTDA;;SAO PIETRO SERVICOS DE SAUDE LTDA;5;HOSPITAL GERAL;ENTIDADES EMPRESARIAIS;MUNICIPAL;-30.02237;-51.1541851;Hospital;;91360-090;ENGENHEIRO WALTER BOEHL, 285 - VILA IPIRANGA;;ATIVO
363;4300604;430060;466;Metropolitana;10;REGIÃO 10 - CAPITAL E VALE DO GRAVATAÍ;01ª CRS;Alvorada;2232081;HOSPITAL ALVORADA;;HOSPITAL ANA NERY SANTA CRUZ DO SUL;5;HOSPITAL GERAL;ENTIDADES SEM FINS LUCRATIVOS;ESTADUAL;-30.008392;-51.074397;Hospital; ;94814-300;RUA JARCI ZAMIN, 170 - TRES FIGUEIRAS;;ATIVO
366;4318903;431890;467;Missioneira;11;REGIÃO 11 - SETE POVOS DAS MISSÕES;12ª CRS;São Luiz Gonzaga;2259893;HOSPITAL SAO LUIZ GONZAGA;;SOCIEDADE HOSPITALAR SAO LUIZ GONZAGA;5;HOSPITAL GERAL;ENTIDADES SEM FINS LUCRATIVOS;ESTADUAL;-28.406928;-54.962856;Hospital; ;97800-000;RUA GENERAL PORTINHO, 1425 - CENTRO;;ATIVO
398;4301404;430140;475;Norte;19;REGIÃO 19 - BOTUCARAÍ;06ª CRS;Arvorezinha;2252163;HOSPITAL BENEFICENTE SAO JOAO - ARVOREZINHA;;HOSPITAL SAO JOAO DE ARVOREZINHA;5;HOSPITAL GERAL;ENTIDADES SEM FINS LUCRATIVOS;ESTADUAL;-28.871394;-52.179492;Hospital; ;95995-000;DALTRO FILHO, 321 - CENTRO;;ATIVO
418;4307005;430700;472;Norte;16;REGIÃO 16 - ALTO URUGUAI GAÚCHO;11ª CRS;Erechim;2249472;HOSPITAL DE CARIDADE DE ERECHIM;;HOSPITAL DE CARIDADE DE ERECHIM;5;HOSPITAL GERAL;ENTIDADES SEM FINS LUCRATIVOS;DUPLA;-27.634046;-52.268907;Hospital; ;99700-372;AV COMANDANTE KRAEMER, 405 - CENTRO;;ATIVO
426;4312708;431270;472;Norte;16;REGIÃO 16 - ALTO URUGUAI GAÚCHO;11ª CRS;Nonoai;2228688;HOSPITAL COMUNITARIO NONOAI;;SOCIEDADE HOSPITALAR COMUNITARIA E BENEFICIENTE NONOAI;5;HOSPITAL GERAL;ENTIDADES SEM FINS LUCRATIVOS;DUPLA;-27.362319;-52.773692;Hospital;PREDIO;99600-000;RUA PE MANOEL GOMES GONZALES, 395 - OPERARIO;;ATIVO
429;4317103;431710;459;Centro-Oeste;3;REGIÃO 03 - FRONTEIRA OESTE;10ª CRS;Santana do Livramento;2248220;SANTA CASA DE MISERICORDIA;;SANTA CASA DE MISERICORDIA;5;HOSPITAL GERAL;ENTIDADES SEM FINS LUCRATIVOS;MUNICIPAL;-30.889872;-55.53804;Hospital; ;97573-560;RUA MANDUCA RODRIGUES, 295 - CENTRO;10.0;ATIVO
432;4304507;430450;477;Sul;21;REGIÃO 21 - SUL;03ª CRS;Canguçu;2232928;HOSPITAL DE CARIDADE DE CANGUCU;;HOSPITAL DE CARIDADE DE CANGUCU;5;HOSPITAL GERAL;ENTIDADES SEM FINS LUCRATIVOS;DUPLA;-31.391612;-52.678538;Hospital;CASA;96600-000;RUA JOSE ALBANO DE SOUZA, 140 - CENTRO;;ATIVO
433;4320701;432070;483;Vales;27;REGIÃO 27 - JACUÍ CENTRO;08ª CRS;Sobradinho;2234408;HOSPITAL DR HOMERO SOBRADINHO;;CASA DE SAUDE DR HOMERO LIMA MENEZES LTDA;5;HOSPITAL GERAL;ENTIDADES EMPRESARIAIS;MUNICIPAL;-29.420059;-53.028699;Hospital; ;96900-000;RUA DR HOMERO LIMA MENEZES, 157 - CENTRO;;ATIVO
436;4311908;431190;472;Norte;16;REGIÃO 16 - ALTO URUGUAI GAÚCHO;11ª CRS;Marcelino Ramos;2249618;HOSPITAL CLINICAS DOUTOR SILVEIRA DE MARCELINO RAMOS;;ASSOCIACAO HOSPITALAR MARCELINENSE;5;HOSPITAL GERAL;ENTIDADES SEM FINS LUCRATIVOS;DUPLA;-27.467733;-51.91007;Hospital; ;99800-000;RUA DOUTOR JOAO DA SILVEIRA, 258 - CENTRO;;ATIVO
444;4302105;430210;481;Serra;25;REGIÃO 25 - VINHEDOS E BASALTO;05ª CRS;Bento Gonçalves;2241021;HOSPITAL TACCHINI;;ASSOCIACAO DR BARTHOLOMEU TACCHINI;5;HOSPITAL GERAL;ENTIDADES SEM FINS LUCRATIVOS;MUNICIPAL;-29.167332;-51.514586;Hospital; ;95700-000;RUA JOSE MARIO MONACO, 358 - CENTRO;26.0;ATIVO
477;4307559;430755;472;Norte;16;REGIÃO 16 - ALTO URUGUAI GAÚCHO;11ª CRS;Estação;2249626;HOSPITAL SANTO ANTONIO ESTACAO;;HOSPITAL SANTO ANTONIO LTDA;5;HOSPITAL GERAL;ENTIDADES SEM FINS LUCRATIVOS;ESTADUAL;-27.913072;-52.257231;Hospital; ;99930-000;RUA LIDO TAGLIARI, 931 - CENTRO;;ATIVO
478;4303608;430360;462;Metropolitana;6;REGIÃO 06 - VALE DO PARANHANA E COSTA SERRA;01ª CRS;Cambará do Sul;5602742;FUNDACAO HOSPITALAR SAO JOSE;;FUNDACAO HOSPITALAR SAO JOSE;5;HOSPITAL GERAL;ENTIDADES SEM FINS LUCRATIVOS;ESTADUAL;-29.050444;-50.148009;Hospital;PREDIO;95480-000;RUA PADRE JOAO PAZZA, 315 - CENTRO;;ATIVO
505;4312401;431240;464;Metropolitana;8;REGIÃO 08 - VALE DO CAÍ E METROPOLITANA;01ª CRS;Montenegro;2227959;HOSPITAL UNIMED VALE DO CAI;;UNIMED VALE DO CAI SOC COOP DE SERV DE SAUDE LTDA;5;HOSPITAL GERAL;ENTIDADES EMPRESARIAIS;MUNICIPAL;-29.694046;-51.480275;Hospital; ;95780-000;RUA JULIO RENNER, 450 - TIMBAUVA;9.0;ATIVO
528;4307500;430750;475;Norte;19;REGIÃO 19 - BOTUCARAÍ;06ª CRS;Espumoso;2246813;HOSPITAL SAO SEBASTIAO - ESPUMOSO;;CONGREGACAO DE NOSSA SENHORA;5;HOSPITAL GERAL;ENTIDADES SEM FINS LUCRATIVOS;ESTADUAL;-28.726173;-52.845453;Hospital; ;99400-000;RUA PADRE REUS, 80 - CENTRO;;ATIVO
542;4313607;431360;474;Norte;18;REGIÃO 18 - ARAUCÁRIAS;06ª CRS;Paim Filho;2247046;HOSPITAL SANTA TEREZINHA - PAIM FILHO;;HOSPITAL SANTA TEREZINHA;5;HOSPITAL GERAL;ENTIDADES SEM FINS LUCRATIVOS;ESTADUAL;-27.707893;-51.763246;Hospital; ;99850-000;RUA DR MILTON MICHELIN, 39 - CENTRO;;ATIVO
545;4319901;431990;463;Metropolitana;7;REGIÃO 07 - VALE DOS SINOS;01ª CRS;Sapiranga;2232154;HOSPITAL SAPIRANGA;;SOCIEDADE BENEFICENTE SAPIRANGUENSE;5;HOSPITAL GERAL;ENTIDADES SEM FINS LUCRATIVOS;ESTADUAL;-29.64065;-51.006992;Hospital; ;93800-000;GETULIO VARGAS, 527 - CENTRO;7.0;ATIVO
550;4301206;430120;483;Vales;27;REGIÃO 27 - JACUÍ CENTRO;08ª CRS;Arroio do Tigre;2234424;HOSPITAL SANTA ROSA DE LIMA;;ASSOCIACAO BENEFICENTE SANTA ROSA DE LIMA;5;HOSPITAL GERAL;ENTIDADES SEM FINS LUCRATIVOS;ESTADUAL;-29.334813;-53.091997;Hospital; ;96950-000;RUA DOM GUILHERME MULLER, 932 - CENTRO;;ATIVO
570;4320503;432050;473;Norte;17;REGIÃO 17 - PLANALTO;06ª CRS;Sertão;2246805;HOSPITAL SAO JOSE - SERTAO;;HOSPITAL SAO JOSE;5;HOSPITAL GERAL;ENTIDADES SEM FINS LUCRATIVOS;ESTADUAL;-27.988196;-52.25962;Hospital; ;99170-000;AV GEN ERNESTO DORNELES, 1041 - CENTRO;;ATIVO
598;4314407;431440;477;Sul;21;REGIÃO 21 - SUL;03ª CRS;Pelotas;2252694;HOSPITAL ESCOLA DA UNIVERSIDADE FEDERAL DE PELOTAS;;HOSPITAL ESCOLA DA UFPEL FUNDACAO DE APOIO UNIVERSITARIO;5;HOSPITAL GERAL;ENTIDADES EMPRESARIAIS;MUNICIPAL;-31.764721;-52.346979;Hospital; ;96020-360;RUA PROFESSOR ARAUJO, 538 - CENTRO;5.0;ATIVO
606;4313805;431380;471;Norte;15;REGIÃO 15 - CAMINHO DAS ÁGUAS;02ª CRS;Palmitinho;2228580;HOSPITAL SANTA TEREZINHA PALMITINHO;;HOSPITAL SANTA TEREZINHA DE PALMITINHO;5;HOSPITAL GERAL;ENTIDADES SEM FINS LUCRATIVOS;ESTADUAL;-27.356581;-53.556614;Hospital;PREDIO;98430-000;RUA CARLOS GOMES, 320 - CENTRO;;ATIVO
629;4305108;430510;479;Serra;23;REGIÃO 23 - CAXIAS E HORTÊNSIAS;05ª CRS;Caxias do Sul;2223546;HOSPITAL POMPEIA;;PIO SODALICIO DAS DAMAS DE CARIDADE DE CAXIAS DO SUL;5;HOSPITAL GERAL;ENTIDADES SEM FINS LUCRATIVOS;MUNICIPAL;-29.167374;-51.183618;Hospital; ;95010-005;AV JULIO DE CASTILHOS, 2163 - CENTRO;30.0;ATIVO
634;4301503;430150;469;Missioneira;13;REGIÃO 13 - DIVERSIDADE;17ª CRS;Augusto Pestana;2261081;HOSPITAL SAO FRANCISCO;;ASSOCIACAO PROTETORA HOSPITAL SAO FRANCISCO;5;HOSPITAL GERAL;ENTIDADES SEM FINS LUCRATIVOS;ESTADUAL;-28.51767;-53.988815;Hospital; ;98740-000;RUA DR OROZIMBO SAMPAIO, 0 - CENTRO;;ATIVO
641;4309308;430930;465;Metropolitana;9;REGIÃO 09 - CARBONÍFERA/COSTA DOCE;01ª CRS;Guaíba;181927;ASSOCIACAO HOSPITALAR VILA NOVA GUAIBA;;ASSOCIACAO HOSPITALAR VILA NOVA;5;HOSPITAL GERAL;ENTIDADES SEM FINS LUCRATIVOS;ESTADUAL;-30.1134188;-51.3313706;Hospital;HOSPITAL;92704-305;RUA SAO PAULO, 800 - CENTRO;;ATIVO
647;4314902;431490;466;Metropolitana;10;REGIÃO 10 - CAPITAL E VALE DO GRAVATAÍ;01ª CRS;Porto Alegre;5029880;DIAGLASER CENTRO DE DIAGNOSTICO E HOSPITAL DIA LTDA;;DIAGLASER CENTRO DE DIAGNOSTICO E HOSPITAL DIA LTDA;62;HOSPITAL/DIA - ISOLADO;ENTIDADES EMPRESARIAIS;MUNICIPAL;-30.046;-51.207859;Hospital;SALA 1302;90620-130;RUA GOMES JARDIM, 301 - SANTANA;;ATIVO
654;4320305;432030;468;Missioneira;12;REGIÃO 12 - PORTAL DAS MISSÕES;09ª CRS;Selbach;2238810;HOSPITAL SAO JACOB;;SOCIEDADE HOSPITALAR SAO JACOB;5;HOSPITAL GERAL;ENTIDADES SEM FINS LUCRATIVOS;ESTADUAL;-28.62769;-52.953545;Hospital; ;99450-000;RUA 15 DE NOVEMBRO, 153 - CENTRO;;ATIVO
657;4314605;431460;477;Sul;21;REGIÃO 21 - SUL;03ª CRS;Piratini;2233347;HOSPITAL DE CARIDADE NOSSA SENHORA DA CONCEICAO PIRATINI;;HOSPITAL DE CARIDADE NOSSA SENHORA DA CONCEICAO;5;HOSPITAL GERAL;ENTIDADES SEM FINS LUCRATIVOS;ESTADUAL;-31.448959;-53.107318;Hospital; ;96490-000;AVENIDA SEIS DE JULHO, 42 - CENTRO;;ATIVO
672;4300034;430003;478;Sul;22;REGIÃO 22 - PAMPA;07ª CRS;Aceguá;2262010;HOSPITAL DA COLONIA NOVA;;COMUNIDADE DA COLONIA NOVA HOSPITAL;5;HOSPITAL GERAL;ENTIDADES SEM FINS LUCRATIVOS;ESTADUAL;-31.665742;-54.068925;Hospital; ;96445-000;POSTO CORREIO DA COLONIA NOVA, 10 - CENTRO;;ATIVO
684;4303707;430370;470;Missioneira;14;REGIÃO 14 - FRONTEIRA NOROESTE;14ª CRS;Campina das Missões;2250802;HOSPITAL CAMPINA;;ASSOC ASSIST CULT E HOSP PE BENEDITO MEISTER C MISSOES;5;HOSPITAL GERAL;ENTIDADES SEM FINS LUCRATIVOS;DUPLA;-27.990951;-54.838916;Hospital;CASA;98975-000;RUA SANTA MARIA, 744 - CENTRO;;ATIVO
689;4314100;431410;473;Norte;17;REGIÃO 17 - PLANALTO;06ª CRS;Passo Fundo;6010830;HOSPITAL ORTOPEDICO DE PASSO FUNDO;;ASSOC HOSPITALAR ORTOPEDICA E TRAUMATOLOGICA DE PASSO FUNDO;7;HOSPITAL ESPECIALIZADO;ENTIDADES SEM FINS LUCRATIVOS;MUNICIPAL;-28.25661063;-52.41773071;Hospital;;99010121;AVENIDA SETE DE SETEMBRO, 817 - CENTRO;;ATIVO
694;4321501;432150;460;Metropolitana;4;REGIÃO 04 - BELAS PRAIAS;18ª CRS;Torres;2707950;HOSPITAL BENEFICENTE NOSSA SENHORA DOS NAVEGANTES;;ASSOCIACAO EDUCADORA SAO CARLOS;5;HOSPITAL GERAL;ENTIDADES SEM FINS LUCRATIVOS;ESTADUAL;-29.335034;-49.728047;Hospital; ;95560-000;MANOEL JOSE DE MATOS PEREIRA, 260 - CENTRO;5.0;ATIVO
715;4322103;432210;470;Missioneira;14;REGIÃO 14 - FRONTEIRA NOROESTE;14ª CRS;Tucunduva;5050170;HOSPITAL DR OSVALDO TEIXEIRA;;ASSOCIACAO HOSPITALAR TUCUNDUVA E NOVO MACHADO;5;HOSPITAL GERAL;ENTIDADES SEM FINS LUCRATIVOS;DUPLA;-27.659532;-54.443542;Hospital;PREDIO;98930-000;RUA SAO LUIZ, 96 - CENTRO;;ATIVO
738;4302907;430290;458;Centro-Oeste;2;REGIÃO 02 - ENTRE RIOS;04ª CRS;Cacequi;5699525;INSTITUTO DE SAUDE E EDUCACAO VIDA CACEQUI;;INSTITUTO DE SAUDE E EDUCACAO VIDA;5;HOSPITAL GERAL;ENTIDADES SEM FINS LUCRATIVOS;ESTADUAL;-29.875475;-54.824761;Hospital; ;97450-000;AVN OSVALDO ARANHA, 550 - CENTRO;;ATIVO
740;4314902;431490;466;Metropolitana;10;REGIÃO 10 - CAPITAL E VALE DO GRAVATAÍ;01ª CRS;Porto Alegre;2265052;HOSPITAL FEMINA SA;;HOSPITAL FEMINA SA;7;HOSPITAL ESPECIALIZADO;ENTIDADES EMPRESARIAIS;MUNICIPAL;-30.029288;-51.206837;Hospital; ;90430-001;RUA MOSTARDEIRO, 17 - RIO BRANCO;4.0;ATIVO
745;4303509;430350;465;Metropolitana;9;REGIÃO 09 - CARBONÍFERA/COSTA DOCE;01ª CRS;Camaquã;2257548;HOSPITAL NOSSA SENHORA APARECIDA DE CAMAQUA;;FUNDACAO ASSISTENCIAL E BENEFICENTE DE CAMAQUA;5;HOSPITAL GERAL;ENTIDADES SEM FINS LUCRATIVOS;ESTADUAL;-30.84837877;-51.81483847;Hospital; ;96180-000;RUA CRISTOVAO GOMES DE ANDRADE, 630 - CENTRO;;ATIVO
753;4308458;430845;468;Missioneira;12;REGIÃO 12 - PORTAL DAS MISSÕES;09ª CRS;Fortaleza dos Valos;2263866;HOSPITAL MUNICIPAL BOM PASTOR;;HOSPITAL MUNICIPAL BOM PASTOR;5;HOSPITAL GERAL;ADMINISTRAÇÃO PÚBLICA;MUNICIPAL;-28.792395;-53.217124;Hospital; ;98125-000;RUA FACCO, 853 - CENTRO;;ATIVO
754;4304200;430420;484;Vales;28;REGIÃO 28 - VINTE E OITO;13ª CRS;Candelária;2236362;HOSPITAL CANDELARIA;;SOCIEDADE BENEFICENTE HOSPITAL CANDELARIA;5;HOSPITAL GERAL;ENTIDADES SEM FINS LUCRATIVOS;MUNICIPAL;-29.666203;-52.792305;Hospital; ;96935-000;AV MARECHAL DEODORO, 1279 - CENTRO;;ATIVO
773;4305702;430570;469;Missioneira;13;REGIÃO 13 - DIVERSIDADE;17ª CRS;Condor;2261111;HOSPITAL DE CONDOR;;SOCIEDADE HOSPITAL BENEFICENTE DE CONDOR;5;HOSPITAL GERAL;ENTIDADES SEM FINS LUCRATIVOS;DUPLA;-28.209374;-53.489266;Hospital; ;98290-000;RUA GERMANO KELLER, 66 - CENTRO;;ATIVO
789;4310207;431020;469;Missioneira;13;REGIÃO 13 - DIVERSIDADE;17ª CRS;Ijuí;2261030;HOSPITAL BOM PASTOR IJUI;;ASSOCIACAO HOSPITAL BOM PASTOR IJUI;5;HOSPITAL GERAL;ENTIDADES SEM FINS LUCRATIVOS;ESTADUAL;-28.393604;-53.896449;Hospital; ;98700-000;AV DAVID JOSE MARTINS, 1376 - HAMMASTRON;;ATIVO
829;4317509;431750;467;Missioneira;11;REGIÃO 11 - SETE POVOS DAS MISSÕES;12ª CRS;Santo Ângelo;7151888;HOSPITAL REGIONAL UNIMED MISSOES;;UNIMED MISSOES RS COOPERATIVA DE ASSISTENCIA A SAUDE LTDA;5;HOSPITAL GERAL;ENTIDADES EMPRESARIAIS;MUNICIPAL;-28.310648;-54.258597;Hospital; ;98801-029;AVENIDA RIO GRANDE DO SUL, 1133 - AVANCO;7.0;ATIVO
831;4308409;430840;457;Centro-Oeste;1;REGIÃO 01 - VERDES CAMPOS;04ª CRS;Formigueiro;2244217;HOSPITAL MUNICIPAL PEDRO CALIL;;PREFEITURA MUNICIPAL DE FORMIGUEIRO;5;HOSPITAL GERAL;ADMINISTRAÇÃO PÚBLICA;ESTADUAL;-30.000602;-53.495785;Hospital; ;97210-000;RUA ADELINO CARDOSO, 150 - CENTRO;;ATIVO
855;4310603;431060;459;Centro-Oeste;3;REGIÃO 03 - FRONTEIRA OESTE;10ª CRS;Itaqui;2248271;HOSPITAL SAO PATRICIO DE ITAQUI;;HOSPITAL SAO PATRICIO DE ITAQUI;5;HOSPITAL GERAL;ENTIDADES SEM FINS LUCRATIVOS;ESTADUAL;-29.136754;-56.54004;Hospital; ;97650-000;RUA SAO FRANCISCO, 694 - CIDADE ALTA;;ATIVO
861;4300406;430040;459;Centro-Oeste;3;REGIÃO 03 - FRONTEIRA OESTE;10ª CRS;Alegrete;2248328;SANTA CASA DE ALEGRETE;;IRMANDADE DA SANTA CASA DE CARIDADE ALEGRETE;5;HOSPITAL GERAL;ENTIDADES SEM FINS LUCRATIVOS;ESTADUAL;-29.774827;-55.791042;Hospital; ;97541-260;RUA GENERAL SAMPAIO, 88 - VILA NOVA;;ATIVO
862;4316907;431690;457;Centro-Oeste;1;REGIÃO 01 - VERDES CAMPOS;04ª CRS;Santa Maria;5433509;HOSPITAL GERAL UNIMED SANTA MARIA;;UNIMED SANTA MARIA RS COOP DE ASSISTENCIA A SAUDE LTDA;5;HOSPITAL GERAL;ENTIDADES EMPRESARIAIS;MUNICIPAL;-29.687203;-53.815489;Hospital; ;97010-000;RUA VENANCIO AIRES, 1078 - CENTRO;;ATIVO
865;4309407;430940;481;Serra;25;REGIÃO 25 - VINHEDOS E BASALTO;05ª CRS;Guaporé;2793237;ASSOCIACAO HOSPITALAR MANOEL FRANCISCO GUERREIRO;;ASSOCIACAO HOSPITALAR MANOEL FRANCISCO GUERREIRO;5;HOSPITAL GERAL;ENTIDADES SEM FINS LUCRATIVOS;MUNICIPAL;-28.848289;-51.885799;Hospital; ;99200-000;RUA DR JOAO MANOEL PEREIRA, 951 - CENTRO;;ATIVO
904;4313003;431300;485;Vales;29;REGIÃO 29 - VALES E MONTANHAS;16ª CRS;Nova Bréscia;2252112;HOSPITAL SAO JOAO BATISTA NOVA BRESCIA;;ASSOCIACAO HOSPITALAR SAO JOAO BATISTA;5;HOSPITAL GERAL;ENTIDADES SEM FINS LUCRATIVOS;MUNICIPAL;-29.214601;-52.025573;Hospital; ;95950-000;AVENIDA BENTO GONCALVES, 1184 - CENTRO;;ATIVO
911;4314100;431410;473;Norte;17;REGIÃO 17 - PLANALTO;06ª CRS;Passo Fundo;2246996;HOSPITAL MUNICIPAL - PASSO FUNDO;;HOSPITAL BENEFICENTE DR CESAR SANTOS;5;HOSPITAL GERAL;ADMINISTRAÇÃO PÚBLICA;ESTADUAL;-28.258439;-52.393919;Hospital; ;99010-640;RUA ALCIDES MOURA, 100 - POPULAR;;ATIVO
913;4314902;431490;466;Metropolitana;10;REGIÃO 10 - CAPITAL E VALE DO GRAVATAÍ;01ª CRS;Porto Alegre;9570047;HOSPITAL BDW;;HOSPITAL BDW S A;5;HOSPITAL GERAL;ENTIDADES EMPRESARIAIS;MUNICIPAL;-30.045762;-51.207889;Hospital;102;90620-130;RUA GOMES JARDIM, 221 - SANTANA;;ATIVO
920;4313409;431340;463;Metropolitana;7;REGIÃO 07 - VALE DOS SINOS;01ª CRS;Novo Hamburgo;533696;HOSPITAL UNIMED VALE DO SINOS TORRE II - NOVO HAMBURGO;;UNIMED VALE DO SINOS COOPERATIVA DE ASSISTENCIA A SAUDE LT;5;HOSPITAL GERAL;ENTIDADES EMPRESARIAIS;MUNICIPAL;-29.689;-51.106954;Hospital;;93540-090;RUA VIDAL BRASIL, 1671 - HAMBURGO VELHO;;ATIVO
922;4314902;431490;466;Metropolitana;10;REGIÃO 10 - CAPITAL E VALE DO GRAVATAÍ;01ª CRS;Porto Alegre;2237121;HOSPITAL SANATORIO PARTENON;;HOSPITAL SANATORIO PARTENON;7;HOSPITAL ESPECIALIZADO;ADMINISTRAÇÃO PÚBLICA;MUNICIPAL;-30.063;-51.178801;Hospital;;90650-001;AV BENTO GONCALVES, 3722 - PARTENON;;ATIVO
924;4321303;432130;486;Vales;30;REGIÃO 30 - VALE DA LUZ;16ª CRS;Taquari;9563873;HOSPITAL SAO JOSE TAQUARI;;ASSOCIACAO TAQUARIENSE DE SAUDE;5;HOSPITAL GERAL;ENTIDADES SEM FINS LUCRATIVOS;MUNICIPAL;-29.802945;-51.866638;Hospital; ;95860-000;MARECHAL DEODORO, 1390 - CENTRO;;ATIVO
927;4321006;432100;475;Norte;19;REGIÃO 19 - BOTUCARAÍ;06ª CRS;Tapera;2246783;HOSPITAL ROQUE GONZALEZ - TAPERA;;SOCIEDADE HOSPITALAR ROQUE GONZALEZ;5;HOSPITAL GERAL;ENTIDADES SEM FINS LUCRATIVOS;ESTADUAL;-28.630542;-52.869092;Hospital; ;99490-000;RUA RUI BARBOSA, 265 - CENTRO;;ATIVO
941;4314308;431430;469;Missioneira;13;REGIÃO 13 - DIVERSIDADE;17ª CRS;Pejuçara;2261138;HOSPITAL PEJUCARA;;CASA BENEFICENTE DE SAUDE RIO BRANCO;5;HOSPITAL GERAL;ENTIDADES SEM FINS LUCRATIVOS;DUPLA;-28.424972;-53.656028;Hospital; ;98270-000;RUA LUIGI BASSO, 1017 - CENTRO;;ATIVO
952;4314902;431490;466;Metropolitana;10;REGIÃO 10 - CAPITAL E VALE DO GRAVATAÍ;01ª CRS;Porto Alegre;2693801;ASSOCIACAO HOSPITALAR VILA NOVA PORTO ALEGRE;;ASSOCIACAO HOSPITALAR VILA NOVA;5;HOSPITAL GERAL;ENTIDADES SEM FINS LUCRATIVOS;MUNICIPAL;-30.119341;-51.207774;Hospital; ;91750-040;RUA CATARINO ANDREATTA, 155 - VILA NOVA;20.0;ATIVO
963;4301305;430130;477;Sul;21;REGIÃO 21 - SUL;03ª CRS;Arroio Grande;2233428;SANTA CASA DE MISERICORDIA DE ARROIO GRANDE;;SANTA CASA DE MISERICORDIA DE ARROIO GRANDE;5;HOSPITAL GERAL;ENTIDADES SEM FINS LUCRATIVOS;ESTADUAL;-32.23105;-53.08403;Hospital; ;96330-000;RUA DR MONTEIRO, 1164 - CENTRO;;ATIVO
967;4315602;431560;477;Sul;21;REGIÃO 21 - SUL;03ª CRS;Rio Grande;2232995;SANTA CASA DO RIO GRANDE;;ASSOCIACAO DE CARIDADE SANTA CASA DO RIO GRANDE;5;HOSPITAL GERAL;ENTIDADES SEM FINS LUCRATIVOS;ESTADUAL;-32.030679;-52.10255;Hospital; ;96200-400;RUA GENERAL OSORIO, 625 - CENTRO;30.0;ATIVO
1003;4302204;430220;470;Missioneira;14;REGIÃO 14 - FRONTEIRA NOROESTE;14ª CRS;Boa Vista do Buricá;2250705;HOSPITAL DE CARIDADE BOA VISTA;;ASSOCIACAO HOSPITALAR BOA VISTA;5;HOSPITAL GERAL;ENTIDADES SEM FINS LUCRATIVOS;ESTADUAL;-27.670592;-54.11028;Hospital; ;98918-000;AV SAO JOSE, 866 - CENTRO;;ATIVO
1004;4314902;431490;466;Metropolitana;10;REGIÃO 10 - CAPITAL E VALE DO GRAVATAÍ;01ª CRS;Porto Alegre;2262568;HOSPITAL SAO LUCAS DA PUCRS;;UNIAO BRASILEIRA DE EDUCACAO E ASSISTENCIA;5;HOSPITAL GERAL;ENTIDADES SEM FINS LUCRATIVOS;MUNICIPAL;-30.055232;-51.173383;Hospital; ;90610-000;AV IPIRANGA, 6690 - JARDIM BOTANICO;5.0;ATIVO
1005;4319000;431900;482;Serra;26;REGIÃO 26 - UVA VALE;05ª CRS;São Marcos;3228630;HOSPITAL DR STICH;;NILDO SANDER STICH;22;CONSULTORIO ISOLADO;ENTIDADES EMPRESARIAIS;MUNICIPAL;-28.969367;-51.068015;Hospital; ;95190-000;RUA DR ROSA, 174 - CENTRO;;ATIVO
1013;4308508;430850;471;Norte;15;REGIÃO 15 - CAMINHO DAS ÁGUAS;02ª CRS;Frederico Westphalen;2228602;HOSPITAL DIVINA PROVIDENCIA FREDWEST;;SOC BENEF DO HOSPITAL DE CARIDADE;5;HOSPITAL GERAL;ENTIDADES SEM FINS LUCRATIVOS;ESTADUAL;-27.35645;-53.401729;Hospital;PREDIO;98400-000;RUA SETE DE SETEMBRO, 90 - CENTRO;10.0;ATIVO
1019;4318432;431843;457;Centro-Oeste;1;REGIÃO 01 - VERDES CAMPOS;04ª CRS;São João do Polêsine;6364810;HOSPITAL DR ROBERTO BINATTO;;HOSPITAL DR ROBERTO BINATTO;5;HOSPITAL GERAL;ENTIDADES SEM FINS LUCRATIVOS;ESTADUAL;-29.620251;-53.445857;Hospital; ;97230-000;RUA AUGUSTO ARNUTI, 700 - CENTRO;;ATIVO
1028;4310108;431010;462;Metropolitana;6;REGIÃO 06 - VALE DO PARANHANA E COSTA SERRA;01ª CRS;Igrejinha;2227665;HOSPITAL BOM PASTOR IGREJINHA;;ASSOCIACAO BENEFICENTE DE IGREJINHA;5;HOSPITAL GERAL;ENTIDADES SEM FINS LUCRATIVOS;ESTADUAL;-29.572503;-50.801169;Hospital; ;95650-000;RUA DR EDMUNDO LAUFFER, 351 - BOM PASTOR;;ATIVO
1056;4312500;431250;461;Metropolitana;5;REGIÃO 05 - BONS VENTOS;18ª CRS;Mostardas;2224615;HOSPITAL SAO LUIZ MOSTARDAS;;SOCIEDADE BENEFICIENTE SAO LUIZ DE MOSTARDAS;5;HOSPITAL GERAL;ENTIDADES SEM FINS LUCRATIVOS;ESTADUAL;-31.104669;-50.917099;Hospital; ;96270-000;ALMIRANTE TAMANDARE, 864 - CENTRO;;ATIVO
1057;4313102;431310;457;Centro-Oeste;1;REGIÃO 01 - VERDES CAMPOS;04ª CRS;Nova Palma;2244128;HOSPITAL NOSSA SENHORA DA PIEDADE;;ASSOCIACAO HOSPITAL NOSSA SENHORA DA PIEDADE;5;HOSPITAL GERAL;ENTIDADES SEM FINS LUCRATIVOS;ESTADUAL;-29.470083;-53.473991;Hospital; ;97250-000;RUA SILVIO GROTTO, 499 - CENTRO;;ATIVO
1063;4300802;430080;482;Serra;26;REGIÃO 26 - UVA VALE;05ª CRS;Antônio Prado;2241072;HOSPITAL SAO JOSE ANTONIO PRADO;;SOCIEDADE HOSPITALAR SAO JOSE;5;HOSPITAL GERAL;ENTIDADES SEM FINS LUCRATIVOS;MUNICIPAL;-28.85661;-51.285345;Hospital; ;95250-000;RUA DR OSVALDO HAMPE, 258 - CENTRO;;ATIVO
1091;4316303;431630;467;Missioneira;11;REGIÃO 11 - SETE POVOS DAS MISSÕES;12ª CRS;Roque Gonzales;2259974;HOSPITAL SANTO ANTONIO ROQUE GONZALES;;HOSPITAL DE CARIDADE SANTO ANTONIO;5;HOSPITAL GERAL;ENTIDADES SEM FINS LUCRATIVOS;ESTADUAL;-28.129604;-55.026366;Hospital; ;97970-000;RUA MONSENHOR WOLSKI, 117 - CENTRO;;ATIVO
1095;4306809;430680;485;Vales;29;REGIÃO 29 - VALES E MONTANHAS;16ª CRS;Encantado;2252228;HOSPITAL SANTA TERESINHA ENCANTADO;;BENEFICENCIA CAMILIANA DO SUL;5;HOSPITAL GERAL;ENTIDADES SEM FINS LUCRATIVOS;MUNICIPAL;-29.23320051;-51.88803684;Hospital; ;95960-000;JULIO DE CASTILHOS, 791 - CENTRO;;ATIVO
1112;4316808;431680;484;Vales;28;REGIÃO 28 - VINTE E OITO;13ª CRS;Santa Cruz do Sul;2255936;HOSPITAL ANA NERY;;HOSPITAL ANA NERY SANTA CRUZ DO SUL;5;HOSPITAL GERAL;ENTIDADES SEM FINS LUCRATIVOS;MUNICIPAL;-29.73771;-52.427176;Hospital; ;96835-090;RUA PEREIRA DA CUNHA, 209 - ARROIO GRANDE;7.0;ATIVO
1118;4311809;431180;473;Norte;17;REGIÃO 17 - PLANALTO;06ª CRS;Marau;9131981;HOSPITAL SAO LUCAS;;HOSPITAL SAO LUCAS LTDA;5;HOSPITAL GERAL;ENTIDADES EMPRESARIAIS;MUNICIPAL;-28.453967;-52.200242;Hospital;PAVMTO02;99150-000;BARAO DO RIO BRANCO, 1751 - CENTRO;;ATIVO
1128;4309704;430970;469;Missioneira;13;REGIÃO 13 - DIVERSIDADE;17ª CRS;Humaitá;2265893;HOSPITAL ADESCO;;ASSOCIACAO DE DESENVOLVIMENTO COMUNITARIO DE HUMAITA;5;HOSPITAL GERAL;ENTIDADES SEM FINS LUCRATIVOS;DUPLA;-27.56682;-53.971763;Hospital; ;98670-000;RUA JOAO PESSOA, 399 - CENTRO;;ATIVO
1130;4315404;431540;476;Norte;20;REGIÃO 20 - ROTA DA PRODUÇÃO;15ª CRS;Redentora;2235455;PRONTO ATENDIMENTO DE URGENCIA;;VIEIRA GUERREIRO E SEGURA LTDA;5;HOSPITAL GERAL;ADMINISTRAÇÃO PÚBLICA;MUNICIPAL;-27.6622208;-53.638743;Hospital;CASA;98550-000;AVENIDA PRESIDENTE CASTELO BRANCO, 55 - CENTRO;;ATIVO
1139;4313409;431340;463;Metropolitana;7;REGIÃO 07 - VALE DOS SINOS;01ª CRS;Novo Hamburgo;3213943;HOSPITAL UNIMED VALE DO SINOS TORRE I NOVO HAMBURGO;;UNIMED VALE DOS SINOS SOCIEDADE COOP DE TRAB MED LTDA;5;HOSPITAL GERAL;ENTIDADES EMPRESARIAIS;MUNICIPAL;-29.688652;-51.107089;Hospital; ;93540-300;RUA WALDEMAR GEIB, 161 - CANUDOS;7.0;ATIVO
1140;4300208;430020;469;Missioneira;13;REGIÃO 13 - DIVERSIDADE;17ª CRS;Ajuricaba;2265885;HOSPITAL AJURICABA;;ASSOCIACAO HOSPITALAR BENEFICENTE AJURICABA;5;HOSPITAL GERAL;ENTIDADES SEM FINS LUCRATIVOS;ESTADUAL;-28.235552;-53.76836;Hospital; ;98750-000;RUA FLORIANO PEIXOTO, 50 - PLANALTO;;ATIVO
1147;4322608;432260;484;Vales;28;REGIÃO 28 - VINTE E OITO;13ª CRS;Venâncio Aires;2236370;HOSPITAL SAO SEBASTIAO MARTIR;;HOSPITAL SAO SEBASTIAO MARTIR;5;HOSPITAL GERAL;ENTIDADES SEM FINS LUCRATIVOS;MUNICIPAL;-29.607657;-52.191095;Hospital; ;95800-000;RUA TIRADENTES, 834 - CENTRO;10.0;ATIVO
1157;4313656;431365;461;Metropolitana;5;REGIÃO 05 - BONS VENTOS;18ª CRS;Palmares do Sul;2224607;HOSPITAL SAO JOSE PALMARES DO SUL;;SOCIEDADE BENEFICENTE SAO JOSE;5;HOSPITAL GERAL;ENTIDADES SEM FINS LUCRATIVOS;ESTADUAL;-30.264523;-50.511876;Hospital; ;95540-000;RUA FIRMIANO OSORIO, 60 - CENTRO;;ATIVO
1204;4313409;431340;463;Metropolitana;7;REGIÃO 07 - VALE DOS SINOS;01ª CRS;Novo Hamburgo;2231611;INSTITUTO DE TRATAMENTO CARDIOVASCULAR LTDA;;INSTITUTO DE TRATAMENTO CARDIOVASCULAR LTDA;62;HOSPITAL/DIA - ISOLADO;ENTIDADES EMPRESARIAIS;MUNICIPAL;-29.6755968;-51.1324262;Hospital;FUNDOS;93315-544;AVENIDA PEDRO ADAMS FILHO, 6520 - OPERARIO;;ATIVO
1211;4310850;431085;476;Norte;20;REGIÃO 20 - ROTA DA PRODUÇÃO;15ª CRS;Jaboticaba;2235315;HOSPITAL SANTA RITA D JABOTICABA;;ASSOCIACAO HOSPITALAR SANTA RITA;5;HOSPITAL GERAL;ENTIDADES SEM FINS LUCRATIVOS;DUPLA;-27.633003;-53.27589;Hospital;CASA;98350-000;RUA THEODORO SYBERICHS, 548 - CENTRO;;ATIVO
1219;4315701;431570;484;Vales;28;REGIÃO 28 - VINTE E OITO;13ª CRS;Rio Pardo;2792974;HOSPITAL DOS PASSOS;;FUNDACAO HOSPITALAR GETULIO VARGAS;5;HOSPITAL GERAL;ENTIDADES SEM FINS LUCRATIVOS;ESTADUAL;-29.984678;-52.371335;Hospital; ;96640-000;PRACA CORONEL PEREIRA REGO, 30 - AUXILIADORA;;ATIVO
1229;4300703;430070;485;Vales;29;REGIÃO 29 - VALES E MONTANHAS;16ª CRS;Anta Gorda;9309470;HOSPITAL PADRE CATELLI;;ASSOCIACAO HOSPITALAR PADRE HERMINIO CATELLI;5;HOSPITAL GERAL;ENTIDADES SEM FINS LUCRATIVOS;MUNICIPAL;-28.97288;-52.005098;Hospital; ;95980-000;RUA ARMINHO MIOTTO, 1032 - CENTRO;;ATIVO
1232;4322533;432253;484;Vales;28;REGIÃO 28 - VINTE E OITO;13ª CRS;Vale do Sol;2236338;HOSPITAL VALE DO SOL;;HOSPITAL BENEFICENTE VALE DO SOL HBVS;5;HOSPITAL GERAL;ENTIDADES SEM FINS LUCRATIVOS;ESTADUAL;-29.604891;-52.687756;Hospital; ;96878-000;RUA LINDOLFO MACHADO, 36 - CENTRO;;ATIVO
1246;4314407;431440;477;Sul;21;REGIÃO 21 - SUL;03ª CRS;Pelotas;7701942;COMPLEXO DE SAUDE UNIMED PELOTAS;;UNIMED PELOTAS RS COOPERATIVA DE ASSISTENCIA A SAUDE LTDA;5;HOSPITAL GERAL;ENTIDADES EMPRESARIAIS;MUNICIPAL;-31.7348132;-52.3474647;Hospital;;96055-120;DR GERALDO TREPTOW, 250 - TRES VENDAS;;ATIVO
1254;4314407;431440;477;Sul;21;REGIÃO 21 - SUL;03ª CRS;Pelotas;2253046;HOSPITAL UNIVERSITARIO SAO FRANCISCO DE PAULA;;SOCIEDADE PELOTENSE DE ASSISTENCIA E CULTURA;5;HOSPITAL GERAL;ENTIDADES SEM FINS LUCRATIVOS;MUNICIPAL;-31.757481;-52.340619;Hospital; ;96020-220;RUA MARECHAL DEODORO, 1123 - CENTRO;20.0;ATIVO
1258;4317103;431710;459;Centro-Oeste;3;REGIÃO 03 - FRONTEIRA OESTE;10ª CRS;Santana do Livramento;5395194;PRONTOMED CTI CENTRO DE TRATAMENTO INTENSIVO LTDA;;PRONTOMED CTI CENTRO DE TRATAMENTO INTENSIVO LTDA;7;HOSPITAL ESPECIALIZADO;ENTIDADES EMPRESARIAIS;MUNICIPAL;-30.898776;-55.529719;Hospital;SALA 05;97574-210;AV ALMIRANTE TAMANDARE, 2880 - CENTRO;6.0;ATIVO
1278;4320677;432067;484;Vales;28;REGIÃO 28 - VINTE E OITO;13ª CRS;Sinimbu;2236346;HOSPITAL SINIMBU;;HOSPITAL BENFICENTE SINIMBU;5;HOSPITAL GERAL;ENTIDADES SEM FINS LUCRATIVOS;MUNICIPAL;-29.534921;-52.521335;Hospital; ;96890-000;RUA BERNARDO FUERSTENAU, 477 - CENTRO;;ATIVO
1279;4317202;431720;470;Missioneira;14;REGIÃO 14 - FRONTEIRA NOROESTE;14ª CRS;Santa Rosa;3017060;HOSPITAL VIDA SAUDE FILIAL 01;;ASSOCIACAO BENEFICENTE DOM BOSCO;5;HOSPITAL GERAL;ENTIDADES SEM FINS LUCRATIVOS;MUNICIPAL;-27.87191;-54.476292;Hospital;PREDIO;98900-000;RUA SANTA ROSA, 980 - CENTRO;10.0;ATIVO
1283;4316907;431690;457;Centro-Oeste;1;REGIÃO 01 - VERDES CAMPOS;04ª CRS;Santa Maria;2244144;HOSPITAL DA BRIGADA MILITAR DE SANTA MARIA;;HOSPITAL DA BRIGADA MILITAR DE SANTA MARIA;5;HOSPITAL GERAL;ENTIDADES SEM FINS LUCRATIVOS;MUNICIPAL;-29.6873648;-53.7922962;Hospital;;97045-100;RUA EUCLIDES DA CUNHA, 1800 - N S DAS DORES;;ATIVO
1303;4304606;430460;464;Metropolitana;8;REGIÃO 08 - VALE DO CAÍ E METROPOLITANA;01ª CRS;Canoas;9679774;COMPLEXO LIBERTAD;51 34111008;LIBERTAD ASSISTENCIA EM SAUDE MENTAL LTDA;7;HOSPITAL ESPECIALIZADO;ENTIDADES EMPRESARIAIS;MUNICIPAL;-29.901594;-51.173793;Hospital;;92410-000;RUA ARAGUAIA, 335 - IGARA;;ATIVO
1304;4308904;430890;472;Norte;16;REGIÃO 16 - ALTO URUGUAI GAÚCHO;11ª CRS;Getúlio Vargas;2249510;HOSPITAL SAO ROQUE DE GETULIO VARGAS;;HOSPITAL SAO ROQUE DE GETULIO VARGAS;5;HOSPITAL GERAL;ENTIDADES SEM FINS LUCRATIVOS;ESTADUAL;-27.884086;-52.223151;Hospital; ;99900-000;RUA JACOB GREMMELAMIER, 212 - CENTRO;;ATIVO
1310;4313201;431320;479;Serra;23;REGIÃO 23 - CAXIAS E HORTÊNSIAS;05ª CRS;Nova Petrópolis;2241102;HOSPITAL NOVA PETROPOLIS;;ORDEM AUXILIADORA SENHORAS ENVANGELICAS NOVA PETROPOLIS;5;HOSPITAL GERAL;ENTIDADES SEM FINS LUCRATIVOS;MUNICIPAL;-29.374175;-51.117774;Hospital; ;95150-000;RUA PASTOR H HUNSCHE, 823 - CENTRO;;ATIVO
1339;4304903;430490;473;Norte;17;REGIÃO 17 - PLANALTO;06ª CRS;Casca;2246872;HOSPITAL BENEFICENTE SANTA LUCIA - CASCA;;HOSPITAL BENEFICENTE SANTA LUCIA;5;HOSPITAL GERAL;ENTIDADES SEM FINS LUCRATIVOS;ESTADUAL;-28.56653;-51.976172;Hospital; ;99260-000;RUA VITORINO MONTEIRO, 755 - CENTRO;;ATIVO
1364;4308706;430870;472;Norte;16;REGIÃO 16 - ALTO URUGUAI GAÚCHO;11ª CRS;Gaurama;2249545;HOSPITAL SANTA ISABEL GAURAMA;;ASSOCIACAO EDUCACIONAL E CARITATIVA HOSP STA ISABEL GAURAMA;5;HOSPITAL GERAL;ENTIDADES SEM FINS LUCRATIVOS;DUPLA;-27.5861;-52.100833;Hospital; ;99830-000;RUA JOSE SPONCHIADO, 690 - CENTRO;;ATIVO
1380;4314902;431490;466;Metropolitana;10;REGIÃO 10 - CAPITAL E VALE DO GRAVATAÍ;01ª CRS;Porto Alegre;4372336;HOSPITAL DOCTOR CLIN;;INSTITUTO DE ASSISTENCIA A SAUDE LTDA;5;HOSPITAL GERAL;ENTIDADES EMPRESARIAIS;MUNICIPAL;-30.0476315;-51.2002024;Hospital;;90640002;AVENIDA VICENTE DA FONTOURA, 1470 - SANTANA;;ATIVO
1394;4314902;431490;466;Metropolitana;10;REGIÃO 10 - CAPITAL E VALE DO GRAVATAÍ;01ª CRS;Porto Alegre;7513151;HOSPITAL RESTINGA E EXTREMO SUL;;ASSOCIACAO HOSPITALAR MOINHOS DE VENTO;5;HOSPITAL GERAL;ENTIDADES SEM FINS LUCRATIVOS;MUNICIPAL;-30.142609;-51.128625;Hospital; ;91790-000;ESTRADA JOAO ANTONIO DA SILVEIRA, 3330 - RESTINGA;10.0;ATIVO
1397;4312203;431220;474;Norte;18;REGIÃO 18 - ARAUCÁRIAS;06ª CRS;Maximiliano de Almeida;2247038;HOSPITAL SAO JOSE - MAXIMILIANO DE ALMEIDA;;SOCIEDADE BENEFICENTE SAO JOSE;5;HOSPITAL GERAL;ENTIDADES SEM FINS LUCRATIVOS;ESTADUAL;-27.641966;-51.800168;Hospital; ;99890-000;RUA VITORIO SETTI, 195 - CENTRO;;ATIVO
1411;4304606;430460;464;Metropolitana;8;REGIÃO 08 - VALE DO CAÍ E METROPOLITANA;01ª CRS;Canoas;3626245;HOSPITAL PRONTO SOCORRO DE CANOAS DEP NELSON MARCHEZAN;;ASSOCIACAO EDUCADORA SAO CARLOS AESC;7;HOSPITAL ESPECIALIZADO;ADMINISTRAÇÃO PÚBLICA;MUNICIPAL;-29.906418;-51.198125;Hospital; ;92330-290;RUA CACAPAVA, 100 - MATHIAS VELHO;10.0;ATIVO
1437;4316402;431640;459;Centro-Oeste;3;REGIÃO 03 - FRONTEIRA OESTE;10ª CRS;Rosário do Sul;2248239;HOSPITAL AUXILIADORA;(55) 3231-2700;HOSPITAL DE CARIDADE NOSSA SENHORA AUXILIADORA;5;HOSPITAL GERAL;ENTIDADES SEM FINS LUCRATIVOS;ESTADUAL;-30.252026;-54.916635;Hospital; ;97590-000;RUA SETE DE SETEMBRO, 2257 - CENTRO;8.0;ATIVO
1447;4305306;430530;476;Norte;20;REGIÃO 20 - ROTA DA PRODUÇÃO;15ª CRS;Chapada;2235307;HOSPITAL SAO JOSE CHAPADA;;SOCIEDADE BENEFICENTE SAO JOSE;5;HOSPITAL GERAL;ENTIDADES SEM FINS LUCRATIVOS;DUPLA;-28.054919;-53.065756;Hospital; ;99530-000;RUA DUQUE DE CAXIAS, 368 - CENTRO;;ATIVO
1470;4305405;430540;469;Missioneira;13;REGIÃO 13 - DIVERSIDADE;17ª CRS;Chiapetta;2261103;HOSPITAL DE CHIAPETTA;;SOCIEDADE HOSPITALAR BENEFICENTE CHIAPETTA;5;HOSPITAL GERAL;ENTIDADES SEM FINS LUCRATIVOS;ESTADUAL;-27.921145;-53.941262;Hospital; ;98760-000;RUA TOMAZIO DE CARVALHO, 977 - CENTRO;;ATIVO
1483;4305108;430510;479;Serra;23;REGIÃO 23 - CAXIAS E HORTÊNSIAS;05ª CRS;Caxias do Sul;2223562;HOSPITAL VIRVI RAMOS;;ASSOCIACAO CULTURAL E CIENTIFICA VIRVI RAMOS;5;HOSPITAL GERAL;ENTIDADES SEM FINS LUCRATIVOS;MUNICIPAL;-29.154509;-51.180093;Hospital; ;95041-520;RUA ALEXANDRE FLEMING, 454 - MADUREIRA;10.0;ATIVO
1485;4315305;431530;459;Centro-Oeste;3;REGIÃO 03 - FRONTEIRA OESTE;10ª CRS;Quaraí;2248247;FUNDACAO HOSPITALAR DE CARIDADE DE QUARAI;;FUNDACAO HOSPITALAR DE CARIDADE DE QUARAI;5;HOSPITAL GERAL;ENTIDADES SEM FINS LUCRATIVOS;MUNICIPAL;-30.378792;-56.460824;Hospital; ;97560-000;RUA ASCANIO TUBINO, 780 - CENTRO;;ATIVO
1507;4302303;430230;480;Serra;24;REGIÃO 24 - CAMPOS DE CIMA DA SERRA;05ª CRS;Bom Jesus;6011926;HOSPITAL DE BOM JESUS;;INSTITUTO DE SAUDE E EDUCACAO VIDA;5;HOSPITAL GERAL;ENTIDADES SEM FINS LUCRATIVOS;MUNICIPAL;-28.665592;-50.437481;Hospital; ;95290-000;AV MANOEL SILVEIRA DE AZEVEDO, 2521 - CENTRO;;ATIVO
1508;4304002;430400;469;Missioneira;13;REGIÃO 13 - DIVERSIDADE;17ª CRS;Campo Novo;2261154;HOSPICAMPO;;ASSOCIACAO HOSPITALAR DE CARIDADE DE CAMPO NOVO;5;HOSPITAL GERAL;ENTIDADES SEM FINS LUCRATIVOS;DUPLA;-27.683501;-53.808175;Hospital; ;98570-000;RUA HERMOGINES PAHIS, 105 - CENTRO;;ATIVO
1513;4321402;432140;471;Norte;15;REGIÃO 15 - CAMINHO DAS ÁGUAS;02ª CRS;Tenente Portela;5384117;HOSPITAL SANTO ANTONIO TENENTE PORTELA;;ASSOCIACAO HOSPITALAR BENEFICIENTE SANTO ANTONIO;5;HOSPITAL GERAL;ENTIDADES SEM FINS LUCRATIVOS;ESTADUAL;-27.370224;-53.758491;Hospital;PREDIO;98500-000;RUA ROMARIO ROSA LOPES, 42 - CENTRO;10.0;ATIVO
1515;4311304;431130;474;Norte;18;REGIÃO 18 - ARAUCÁRIAS;06ª CRS;Lagoa Vermelha;3819590;HOSPITAL SAO PAULO;;FUNDACAO ARAUCARIA;5;HOSPITAL GERAL;ENTIDADES SEM FINS LUCRATIVOS;ESTADUAL;-28.206479;-51.531653;Hospital; ;95300-000;AV NIVIO CASTELANO, 1271 - CENTRO;;ATIVO
1521;4313409;431340;463;Metropolitana;7;REGIÃO 07 - VALE DOS SINOS;01ª CRS;Novo Hamburgo;2232057;HOSPITAL REGINA NOVO HAMBURGO;;ASSOCIACAO CONGREGACAO DE SANTA CATARINA;5;HOSPITAL GERAL;ENTIDADES SEM FINS LUCRATIVOS;MUNICIPAL;-29.678212;-51.115548;Hospital; ;93510-250;AV DR MAURICIO CARDOSO, 711 - HAMBURGO VELHO;17.0;ATIVO
1538;4320404;432040;473;Norte;17;REGIÃO 17 - PLANALTO;06ª CRS;Serafina Corrêa;2260050;HOSPITAL NOSSA SENHORA DO ROSARIO;;HOSPITAL NOSSA SENHORA DO ROSARIO;5;HOSPITAL GERAL;ENTIDADES SEM FINS LUCRATIVOS;MUNICIPAL;-28.71173;-51.936142;Hospital; ;99250-000;RUA MONSENHOR JOAO BAPTISTA SCALABRINI, 260 - CENTRO;;ATIVO
1540;4323002;432300;466;Metropolitana;10;REGIÃO 10 - CAPITAL E VALE DO GRAVATAÍ;01ª CRS;Viamão;5223962;INSTITUTO DE CARDIOLOGIA HOSPITAL VIAMAO;;FUNDACAO UNIVERSITARIA DE CARDIOLOGIA;5;HOSPITAL GERAL;ENTIDADES SEM FINS LUCRATIVOS;ESTADUAL;-30.081732;-51.030015;Hospital; ;94410-250;RUA ISABEL BASTOS, 137 - CENTRO;15.0;ATIVO
1542;4315156;431515;485;Vales;29;REGIÃO 29 - VALES E MONTANHAS;16ª CRS;Progresso;2252082;HOSPITAL SANTA ISABEL -PROGRESSO;;SOCIEDADE SULINA DIVINA PROVIDENCIA;5;HOSPITAL GERAL;ENTIDADES SEM FINS LUCRATIVOS;MUNICIPAL;-29.242395;-52.309578;Hospital;PREDIO HSI;95925-000;RUA CORONEL FETT FILHO, 50 - CENTRO;;ATIVO
1554;4312104;431210;458;Centro-Oeste;2;REGIÃO 02 - ENTRE RIOS;04ª CRS;Mata;2244187;HOSPITAL DE MATA;;HOSPITAL DE CARIDADE DE MATA;5;HOSPITAL GERAL;ENTIDADES SEM FINS LUCRATIVOS;ESTADUAL;-29.565508;-54.462224;Hospital; ;97410-000;RUA GENERAL OSORIO, 208 - CENTRO;;ATIVO
1562;4314902;431490;466;Metropolitana;10;REGIÃO 10 - CAPITAL E VALE DO GRAVATAÍ;01ª CRS;Porto Alegre;4521218;DAY HOSPITAL MOINHOS DE VENTO PONTAL C CIRURG AMBUL;;ASSOCIACAO HOSPITALAR MOINHOS DE VENTO;62;HOSPITAL/DIA - ISOLADO;ENTIDADES SEM FINS LUCRATIVOS;MUNICIPAL;-30.0793103;-51.2473909;Hospital;BLOCO HUB 5;90810240;AVENIDA PADRE CACIQUE, 2893 - CRISTAL;;ATIVO
1576;4310009;431000;468;Missioneira;12;REGIÃO 12 - PORTAL DAS MISSÕES;09ª CRS;Ibirubá;5395674;HOSPITAL ANNES DIAS;;ASSOCIACAO HOSPITALAR ANNES DIAS;5;HOSPITAL GERAL;ENTIDADES SEM FINS LUCRATIVOS;ESTADUAL;-28.632556;-53.090207;Hospital; ;98200-000;RUA DINIZ DIAS, 309 - CENTRO;;ATIVO
1603;4305108;430510;479;Serra;23;REGIÃO 23 - CAXIAS E HORTÊNSIAS;05ª CRS;Caxias do Sul;2223570;HOSPITAL DO CIRCULO;;CIRCULO OPERARIO CAXIENSE;5;HOSPITAL GERAL;ENTIDADES SEM FINS LUCRATIVOS;MUNICIPAL;-29.153503;-51.173433;Hospital; ;95040-000;RUA ARCY DA ROCHA NOBREGA, 421 - JARDIM MARGARIDA;18.0;ATIVO
1604;4317202;431720;470;Missioneira;14;REGIÃO 14 - FRONTEIRA NOROESTE;14ª CRS;Santa Rosa;2254611;HOSPITAL VIDA SAUDE;;ASSOCIACAO HOSPITAL CARIDADE SANTA ROSA;5;HOSPITAL GERAL;ENTIDADES SEM FINS LUCRATIVOS;MUNICIPAL;-27.866829;-54.485054;Hospital;CASA;98900-000;RUA DR FRANCISCO TIMM, 656 - CENTRO;10.0;ATIVO
1613;4303905;430390;463;Metropolitana;7;REGIÃO 07 - VALE DOS SINOS;01ª CRS;Campo Bom;2232073;HOSPITAL DE CAMPO BOM DR LAURO REUS;;HOSPITAL DE CARIDADE SAO ROQUE;5;HOSPITAL GERAL;ENTIDADES SEM FINS LUCRATIVOS;MUNICIPAL;-29.68748;-51.054845;Hospital; ;93700-000;RUA OSVALDO CRUZ, 116 - BELA VISTA;10.0;ATIVO
1615;4301008;430100;485;Vales;29;REGIÃO 29 - VALES E MONTANHAS;16ª CRS;Arroio do Meio;2252198;HOSPITAL SAO JOSE ARROIO DO MEIO;;SOCIEDADE SULINA DIVINA PROVIDENCIA;5;HOSPITAL GERAL;ENTIDADES SEM FINS LUCRATIVOS;MUNICIPAL;-29.401473;-51.947323;Hospital; ;95940-000;RUA JULIO DE CASTILHOS, 314 - CENTRO;;ATIVO
1621;4315107;431510;467;Missioneira;11;REGIÃO 11 - SETE POVOS DAS MISSÕES;12ª CRS;Porto Xavier;2259982;HOSPITAL DE PORTO XAVIER;;ASSOCIACAO HOSPITAL DE CARIDADE NOSSA SENHORA DOS NAVEGANTES;5;HOSPITAL GERAL;ENTIDADES SEM FINS LUCRATIVOS;ESTADUAL;-27.90336834;-55.13931742;Hospital; ;98995-000;RUA OSVALDO CRUZ, 555 - CENTRO;;ATIVO
1670;4321204;432120;462;Metropolitana;6;REGIÃO 06 - VALE DO PARANHANA E COSTA SERRA;01ª CRS;Taquara;2227932;HOSPITAL BOM JESUS;;ASSOCIACAO EDUCADORA SAO CARLOS AESC;5;HOSPITAL GERAL;ENTIDADES SEM FINS LUCRATIVOS;ESTADUAL;-29.644191;-50.778406;Hospital; ;95600-000;R EMILIO LUCIO ESTEVES, 1042 - SAGRADA FAMILIA;;ATIVO
1677;4305108;430510;479;Serra;23;REGIÃO 23 - CAXIAS E HORTÊNSIAS;05ª CRS;Caxias do Sul;2223589;CLINICA PROFESSOR PAULO GUEDES LTDA;;CLINICA PROFESSOR PAULO GUEDES LTDA;7;HOSPITAL ESPECIALIZADO;ENTIDADES EMPRESARIAIS;MUNICIPAL;-29.1135281;-51.0888787;Hospital;;95060-000;AVENIDA RIO BRANCO, 1554 - ANA RECH;;ATIVO
1687;4314902;431490;466;Metropolitana;10;REGIÃO 10 - CAPITAL E VALE DO GRAVATAÍ;01ª CRS;Porto Alegre;2237601;HOSPITAL DE CLINICAS;;HOSPITAL DE CLINICAS DE PORTO ALEGRE;5;HOSPITAL GERAL;ENTIDADES EMPRESARIAIS;MUNICIPAL;-30.038638;-51.206436;Hospital;LARGO EDUARDO FARACO;90035-903;RUA RAMIRO BARCELOS, 2350 - SANTANA;82.0;ATIVO
1688;4311809;431180;473;Norte;17;REGIÃO 17 - PLANALTO;06ª CRS;Marau;2246953;HOSPITAL CRISTO REDENTOR - MARAU;;ASSOCIACAO HOSPITALAR BENEFICENTE DE MARAU;5;HOSPITAL GERAL;ENTIDADES SEM FINS LUCRATIVOS;ESTADUAL;-28.447042;-52.193964;Hospital; ;99150-000;RUA BENTO GONCALVES, 10 - CENTRO;;ATIVO
1690;4314902;431490;466;Metropolitana;10;REGIÃO 10 - CAPITAL E VALE DO GRAVATAÍ;01ª CRS;Porto Alegre;3567664;HOSPITAL ERNESTO DORNELLES;;HOSPITAL ERNESTO DORNELLES;5;HOSPITAL GERAL;ENTIDADES SEM FINS LUCRATIVOS;MUNICIPAL;-30.047492;-51.211891;Hospital; ;90160-093;AV IPIRANGA, 1801 - AZENHA;40.0;ATIVO
1701;4305900;430590;476;Norte;20;REGIÃO 20 - ROTA DA PRODUÇÃO;15ª CRS;Coronel Bicaco;2235382;ASSOC HOSP SANTO ANTONIO DE PADUA;;ASSOC HOSP SANTO ANTONIO DE PADUA;5;HOSPITAL GERAL;ENTIDADES SEM FINS LUCRATIVOS;ESTADUAL;-27.715877;-53.702126;Hospital; ;98580-000;RUA FRANCISCO GOBBI, 510 - CENTRO;;ATIVO
1704;4319109;431910;469;Missioneira;13;REGIÃO 13 - DIVERSIDADE;17ª CRS;São Martinho;2707608;HOSPITAL DE CARIDADE DE SAO MARTINHO;;SOCIEDADE CULTURAL SAO GREGORIO;5;HOSPITAL GERAL;ENTIDADES SEM FINS LUCRATIVOS;DUPLA;-27.708065;-53.964652;Hospital; ;98690-000;AV GETULIO VARGAS, 690 - CENTRO;;ATIVO
1719;4314407;431440;477;Sul;21;REGIÃO 21 - SUL;03ª CRS;Pelotas;630284;CENTRO CLINICO PILTCHER LTDA;;CENTRO CLINICO PILTCHER LTDA;5;HOSPITAL GERAL;ENTIDADES EMPRESARIAIS;MUNICIPAL;-31.75799;-52.3374745;Hospital;;96020-080;ANDRADE NEVES, 3006 - CENTRO;;ATIVO
1722;4315206;431520;485;Vales;29;REGIÃO 29 - VALES E MONTANHAS;16ª CRS;Putinga;2252171;HOSPITAL DOUTOR OSCAR BENEVOLO;;ASSOCIACAO HOSPITALAR DOUTOR OSCAR BENEVOLO;5;HOSPITAL GERAL;ENTIDADES SEM FINS LUCRATIVOS;MUNICIPAL;-29.002048;-52.15951;Hospital; ;95975-000;RUA JULIO DE CASTILHOS, 452 - CENTRO;;ATIVO
1724;4322202;432220;457;Centro-Oeste;1;REGIÃO 01 - VERDES CAMPOS;04ª CRS;Tupanciretã;2244225;HOSPITAL DE CARIDADE BRASILINA TERRA;;ASSOCIACAO PROTETORA HOSPITAL DE CARIDADE BRAZILINA TERRA;5;HOSPITAL GERAL;ENTIDADES SEM FINS LUCRATIVOS;ESTADUAL;-29.071557;-53.848879;Hospital; ;98170-000;AVN RIO BRANCO, 2 - CENTRO;;ATIVO
1735;4314407;431440;477;Sul;21;REGIÃO 21 - SUL;03ª CRS;Pelotas;2252295;SOCIEDADE PORTUGUESA DE BENEFICENCIA;;SOCIEDADE PORTUGUESA DE BENEFICENCIA;5;HOSPITAL GERAL;ENTIDADES SEM FINS LUCRATIVOS;MUNICIPAL;-31.77518;-52.345889;Hospital; ;96020-080;RUA ANDRADE NEVES, 915 - CENTRO;20.0;ATIVO
1752;4302808;430280;483;Vales;27;REGIÃO 27 - JACUÍ CENTRO;08ª CRS;Caçapava do Sul;2234416;HOSPITAL DE CARIDADE DR VICTOR LANG;;ASSOCIACAO HOSPITAL DE CARIDADE DR VICTOR LANG;5;HOSPITAL GERAL;ENTIDADES SEM FINS LUCRATIVOS;ESTADUAL;-30.516465;-53.4883;Hospital; ;96570-000;AV CORONEL CORIOLANO CASTRO, 920 - CENTRO;;ATIVO
1753;4306106;430610;468;Missioneira;12;REGIÃO 12 - PORTAL DAS MISSÕES;09ª CRS;Cruz Alta;2263823;HOSPITAL SANTA LUCIA LTDA;;HOSPITAL SANTA LUCIA LTDA;5;HOSPITAL GERAL;ENTIDADES EMPRESARIAIS;MUNICIPAL;-28.639636;-53.607762;Hospital; ;98025-220;R CORONEL PILLAR, 748 - CENTRO;12.0;ATIVO
1759;4301602;430160;478;Sul;22;REGIÃO 22 - PAMPA;07ª CRS;Bagé;2261995;HOSPITAL UNIVERSITARIO URCAMP;;HOSPITAL UNIVERSITARIO URCAMP;5;HOSPITAL GERAL;ENTIDADES SEM FINS LUCRATIVOS;ESTADUAL;-31.3329856;-54.1026512;Hospital; ;96400-350;RUA FLORES DA CUNHA, 169 - CENTRO;;ATIVO
1763;4316105;431610;476;Norte;20;REGIÃO 20 - ROTA DA PRODUÇÃO;15ª CRS;Ronda Alta;2235420;ASSOCIACAO HOSPITALAR DE RONDA ALTA;;ASSOCIACAO HOSPITALAR DE RONDA ALTA;5;HOSPITAL GERAL;ENTIDADES SEM FINS LUCRATIVOS;ESTADUAL;-27.782808;-52.801821;Hospital;PREDIO;99670-000;TRAVESSA SAO JORGE, 38 - CENTRO;;ATIVO
1768;4307005;430700;472;Norte;16;REGIÃO 16 - ALTO URUGUAI GAÚCHO;11ª CRS;Erechim;2707918;FUNDACAO HOSPITALAR SANTA TEREZINHA DE ERECHIM;;FUNDACAO HOSPITALAR SANTA TEREZINHA DE ERECHIM;5;HOSPITAL GERAL;ADMINISTRAÇÃO PÚBLICA;DUPLA;-27.635994;-52.282919;Hospital; ;99700-048;RUA ITALIA, 919 - CENTRO;16.0;ATIVO
1773;4319802;431980;458;Centro-Oeste;2;REGIÃO 02 - ENTRE RIOS;04ª CRS;São Vicente do Sul;2244136;HOSPITAL DE SAO VICENTE DO SUL;;PREFEITURA MUNICIPAL DE SAO VICENTE DO SUL;63;HOSPITAL/DIA - ISOLADO;ADMINISTRAÇÃO PÚBLICA;ESTADUAL;-29.695094;-54.671594;Hospital; ;97420-000;RUA ANTONIO GOMES, 386 - CENTRO;;ATIVO
1774;4305108;430510;479;Serra;23;REGIÃO 23 - CAXIAS E HORTÊNSIAS;05ª CRS;Caxias do Sul;3356868;HOSPITAL UNIMED CAXIAS DO SUL;;UNIMED NORDESTE RS SOCIEDADE COOPERATIVA DE SMEDLTDA;5;HOSPITAL GERAL;ENTIDADES EMPRESARIAIS;MUNICIPAL;-29.16466;-51.200877;Hospital; ;95013-000;RUA CARLOS BIANCHINI, 1744 - MARECHAL FLORIANO;20.0;ATIVO
1782;4302402;430240;486;Vales;30;REGIÃO 30 - VALE DA LUZ;16ª CRS;Bom Retiro do Sul;2252023;HOSPITAL DE CARIDADE SANTANA BOM RETIRO DO SUL;;ASSOCIACAO CRUZEIRAS DE SAO FRANCISCO;5;HOSPITAL GERAL;ENTIDADES SEM FINS LUCRATIVOS;MUNICIPAL;-29.603367;-51.940664;Hospital; ;95870-000;RUA ANTONIO MORAES VIEGAS, 133 - CENTRO;;ATIVO
1786;4314472;431447;457;Centro-Oeste;1;REGIÃO 01 - VERDES CAMPOS;04ª CRS;Pinhal Grande;2244209;CASA DE SAUDE SAO JOSE;;CASA DE SAUDE SAO JOSE;5;HOSPITAL GERAL;ENTIDADES SEM FINS LUCRATIVOS;ESTADUAL;-29.347122;-53.307757;Hospital; ;98150-000;RUA CEZAR RUBIN, 324 - CENTRO;;ATIVO
1788;4304630;430463;460;Metropolitana;4;REGIÃO 04 - BELAS PRAIAS;18ª CRS;Capão da Canoa;2707969;HOSPITAL BENEFICIENTE SANTA LUZIA;;ASSOCIACAO EDUCADORA SAO CARLOS AESC;5;HOSPITAL GERAL;ENTIDADES SEM FINS LUCRATIVOS;ESTADUAL;-29.765551;-50.02426;Hospital; ;95555-000;RUA DOM LUIZ GUANELLA, 2864 - GIRASSOL;10.0;ATIVO
1797;4315602;431560;477;Sul;21;REGIÃO 21 - SUL;03ª CRS;Rio Grande;2707675;HOSPITAL UNIVERSITARIO DR MIGUEL RIET CORREA JUNIOR;;FUNDACAO DE APOIO HOSPITAL ENSINO RIO GRANDE;5;HOSPITAL GERAL;ENTIDADES EMPRESARIAIS;ESTADUAL;-32.029107;-52.102826;Hospital; ;96200-190;RUA VISCONDE DE PARANAGUA, 102 - CENTRO;6.0;ATIVO
1815;4314902;431490;466;Metropolitana;10;REGIÃO 10 - CAPITAL E VALE DO GRAVATAÍ;01ª CRS;Porto Alegre;2778718;HPS PORTO ALEGRE;;HOSPITAL DE PRONTO SOCORRO;7;HOSPITAL ESPECIALIZADO;ADMINISTRAÇÃO PÚBLICA;MUNICIPAL;-30.036889;-51.209252;Hospital; ;90040-194;LARGO THEODORO HERLTZ, 0 - BOM FIM;20.0;ATIVO
1840;4305355;430535;465;Metropolitana;9;REGIÃO 09 - CARBONÍFERA/COSTA DOCE;01ª CRS;Charqueadas;9528792;HOSPITAL DE CHARQUEADAS;;ASSOCIACAO HOSPITALAR VILA NOVA;5;HOSPITAL GERAL;ENTIDADES SEM FINS LUCRATIVOS;ESTADUAL;-29.967029;-51.637711;Hospital; ;96745-000;RS 401, 1754 - JARDIM NOSSA SENHORA;;ATIVO
1861;4311403;431140;485;Vales;29;REGIÃO 29 - VALES E MONTANHAS;16ª CRS;Lajeado;2252287;HOSPITAL BRUNO BORN;;SOCIEDADE BENEFICENCIA E CARIDADE DE LAJEADO;5;HOSPITAL GERAL;ENTIDADES SEM FINS LUCRATIVOS;MUNICIPAL;-29.463181;-51.966526;Hospital; ;95900-000;AV BENJAMIN CONSTANT, 881 - CENTRO;26.0;ATIVO
1902;4322004;432200;464;Metropolitana;8;REGIÃO 08 - VALE DO CAÍ E METROPOLITANA;01ª CRS;Triunfo;2227673;HOSPITAL DE CARIDADE SANTA RITA;;SOCIEDADE PARA FUND E MANUT DO HOSP DE CARIDADE SANTA RITA;5;HOSPITAL GERAL;ENTIDADES SEM FINS LUCRATIVOS;ESTADUAL;-29.944485;-51.716568;Hospital; ;95840-000;RUA OSVALDO ARANHA, 128 - CENTRO;;ATIVO
1921;4316600;431660;474;Norte;18;REGIÃO 18 - ARAUCÁRIAS;06ª CRS;Sananduva;2246767;HOSPITAL SAO JOAO - SANANDUVA;;HOSPITAL BENEFICENTE SAO JOAO;5;HOSPITAL GERAL;ENTIDADES SEM FINS LUCRATIVOS;ESTADUAL;-27.950941;-51.814621;Hospital; ;99840-000;AV SALZANO DA CUNHA, 9 - CENTRO;;ATIVO
1931;4318309;431830;459;Centro-Oeste;3;REGIÃO 03 - FRONTEIRA OESTE;10ª CRS;São Gabriel;2248204;SANTA CASA DE SAO GABRIEL;;IRMANDADE DE SANTA CASA DE CARIDADE;5;HOSPITAL GERAL;ENTIDADES SEM FINS LUCRATIVOS;ESTADUAL;-30.334405;-54.321044;Hospital; ;97300-000;RUA GENERAL MARQUES, 72 - CENTRO;12.0;ATIVO
1940;4315602;431560;477;Sul;21;REGIÃO 21 - SUL;03ª CRS;Rio Grande;4332490;HOSPITAL MONPORTO;;REDE DE SAUDE ACORES SA;5;HOSPITAL GERAL;ENTIDADES EMPRESARIAIS;MUNICIPAL;-32.0491716;-52.1132732;Hospital;;96202336;AVENIDA PRESIDENTE VARGAS, 501 - SAO PAULO;;ATIVO
1941;4313508;431350;461;Metropolitana;5;REGIÃO 05 - BONS VENTOS;18ª CRS;Osório;2257815;HOSPITAL SAO VICENTE DE PAULO OSORIO;;ASSOCIACAO BENEFICENTE SAO VICENTE DE PAULO;5;HOSPITAL GERAL;ENTIDADES SEM FINS LUCRATIVOS;ESTADUAL;-29.886359;-50.265218;Hospital; ;95520-000;RUA JOAO SARMENTO, 391 - CAIU DO CEU;;ATIVO
1946;4309001;430900;470;Missioneira;14;REGIÃO 14 - FRONTEIRA NOROESTE;14ª CRS;Giruá;2260069;HOSPITAL SAO JOSE GIRUA;;ASSOCIACAO DE LITERATURA E BENEFICENCIA;5;HOSPITAL GERAL;ENTIDADES SEM FINS LUCRATIVOS;MUNICIPAL;-28.030681;-54.345701;Hospital; ;98870-000;AV PRESIDENTE VARGAS, 867 - CENTRO;;ATIVO
1971;4314902;431490;466;Metropolitana;10;REGIÃO 10 - CAPITAL E VALE DO GRAVATAÍ;01ª CRS;Porto Alegre;2237253;IRMANDADE DA SANTA CASA DE MISERICORDIA DE PORTO ALEGRE;;IRMANDADE DA SANTA CASA DE MISERICORDIA DE PORTO ALEGRE;5;HOSPITAL GERAL;ENTIDADES SEM FINS LUCRATIVOS;MUNICIPAL;-30.030253;-51.222617;Hospital; ;90020-090;R PROF ANNES DIAS, 295 - CENTRO;87.0;ATIVO
1993;4320602;432060;472;Norte;16;REGIÃO 16 - ALTO URUGUAI GAÚCHO;11ª CRS;Severiano de Almeida;2249499;HOSPITAL SAO ROQUE SEVERIANO DE ALMEIDA;;HOSPITAL SAO ROQUE;5;HOSPITAL GERAL;ENTIDADES SEM FINS LUCRATIVOS;ESTADUAL;-27.43408;-52.115253;Hospital; ;99810-000;AV BRASIL, 61 - CENTRO;;ATIVO
1999;4310751;431075;457;Centro-Oeste;1;REGIÃO 01 - VERDES CAMPOS;04ª CRS;Ivorá;2244179;HOSPITAL DE IVORA;;SOCIEDADE HOSPITAL NOSSA SENHORA DA SAUDE;5;HOSPITAL GERAL;ENTIDADES SEM FINS LUCRATIVOS;ESTADUAL;-29.519898;-53.58075;Hospital; ;98160-000;RUA BENTO GONCALVES, 539 - CENTRO;;ATIVO
2020;4315800;431580;485;Vales;29;REGIÃO 29 - VALES E MONTANHAS;16ª CRS;Roca Sales;2252147;SOCIEDADE BENEFICENTE ROQUE GONZALES;;SOCIEDADE BENEFICENTE ROQUE GONZALES;5;HOSPITAL GERAL;ENTIDADES SEM FINS LUCRATIVOS;MUNICIPAL;-29.283405;-51.869616;Hospital; ;95735-000;AV GENERAL OSORIO, 70 - CENTRO;;ATIVO
2023;4304804;430480;481;Serra;25;REGIÃO 25 - VINHEDOS E BASALTO;05ª CRS;Carlos Barbosa;2241137;HOSPITAL BENEFICENTE SAO ROQUE;;HOSPITAL BENEFICENTE SAO ROQUE;5;HOSPITAL GERAL;ENTIDADES SEM FINS LUCRATIVOS;MUNICIPAL;-29.295893;-51.498198;Hospital; ;95185-000;AV PRESIDENTE KENNEDY, 343 - AURORA;;ATIVO
2033;4317806;431780;469;Missioneira;13;REGIÃO 13 - DIVERSIDADE;17ª CRS;Santo Augusto;2261065;HOSPITAL BOM PASTOR SANTO AUGUSTO;;ASSOCIACAO HOSPITALAR BOM PASTOR;5;HOSPITAL GERAL;ENTIDADES SEM FINS LUCRATIVOS;ESTADUAL;-27.853703;-53.775893;Hospital; ;98590-000;RUA INDEPENDENCIA, 73 - CENTRO;;ATIVO
2036;4309100;430910;479;Serra;23;REGIÃO 23 - CAXIAS E HORTÊNSIAS;05ª CRS;Gramado;2241153;HOSPITAL ARCANJO SAO MIGUEL;;ASSOCIACAO FRANCISCANA DE ASSISTENCIA A SAUDE;5;HOSPITAL GERAL;ENTIDADES SEM FINS LUCRATIVOS;MUNICIPAL;-29.376916;-50.870175;Hospital; ;95670-000;RUA MADRE VERONICA, 396 - CENTRO;10.0;ATIVO
2046;4315909;431590;471;Norte;15;REGIÃO 15 - CAMINHO DAS ÁGUAS;02ª CRS;Rodeio Bonito;2228734;HOSPITAL SAO JOSE RODEIO BONITO;;ASSOCIACAO HOSPITALAR SAO JOSE;5;HOSPITAL GERAL;ENTIDADES SEM FINS LUCRATIVOS;ESTADUAL;-27.471505;-53.168809;Hospital;PREDIO;98360-000;RUA JULIO DE CASTILHOS, 290 - CENTRO;;ATIVO
2059;4316436;431643;468;Missioneira;12;REGIÃO 12 - PORTAL DAS MISSÕES;09ª CRS;Saldanha Marinho;2263874;HOSPITAL MUNICIPAL SALDANHA MARINHO;;HOSPITAL MUNICIPAL SALDANHA MARINHO;5;HOSPITAL GERAL;ADMINISTRAÇÃO PÚBLICA;MUNICIPAL;-28.391326;-53.098474;Hospital; ;98250-000;RUA PRESTES GUIMARAES, 591 - CENTRO;;ATIVO
2074;4305108;430510;479;Serra;23;REGIÃO 23 - CAXIAS E HORTÊNSIAS;05ª CRS;Caxias do Sul;2223597;HOSPITAL SAUDE;;HOSPITAL SAUDE LTDA;5;HOSPITAL GERAL;ENTIDADES EMPRESARIAIS;MUNICIPAL;-29.164654;-51.183509;Hospital; ;95020-450;RUA VINTE DE SETEMBRO, 2311 - CENTRO;10.0;ATIVO
2076;4314407;431440;477;Sul;21;REGIÃO 21 - SUL;03ª CRS;Pelotas;2253054;SANTA CASA DE MISERICORDIA DE PELOTAS;;SANTA CASA DE MISERICORDIA DE PELOTAS;5;HOSPITAL GERAL;ENTIDADES SEM FINS LUCRATIVOS;MUNICIPAL;-31.765436;-52.346658;Hospital; ;96015-290;PCA PIRATININO DE ALMEIDA, 53 - CENTRO;17.0;ATIVO
2087;4317004;431700;477;Sul;21;REGIÃO 21 - SUL;03ª CRS;Santana da Boa Vista;2913267;HOSPITAL MUNICIPAL SANTANA DA BOA VISTA;;MUNICIPIO DE SANTANA DA BOA VISTA;5;HOSPITAL GERAL;ADMINISTRAÇÃO PÚBLICA;ESTADUAL;-30.87368;-53.1120548;Hospital;;96590-000;RUA 6 DE MAIO, 123 - CENTRO;;ATIVO
2092;4305108;430510;479;Serra;23;REGIÃO 23 - CAXIAS E HORTÊNSIAS;05ª CRS;Caxias do Sul;3625133;CSM CENTRO ESPECIALIZADO EM SAUDE MENTAL E GERIATRIA LTDA;;CSM CENTRO ESPECIALIZADO EM SAUDE MENTAL E GERIATRIA LTDA;7;HOSPITAL ESPECIALIZADO;ENTIDADES SEM FINS LUCRATIVOS;MUNICIPAL;-29.1570803;-51.2180646;Hospital;;95030-310;RUA ERNESTO ZANROSSO, 2960 - SANTA CATARINA;;ATIVO
2102;4317509;431750;467;Missioneira;11;REGIÃO 11 - SETE POVOS DAS MISSÕES;12ª CRS;Santo Ângelo;2259907;HOSPITAL SANTO ANGELO;;ASSOCIACAO HOSPITAL DE CARIDADE DE SANTO ANGELO;5;HOSPITAL GERAL;ENTIDADES SEM FINS LUCRATIVOS;ESTADUAL;-28.305797;-54.263537;Hospital; ;98801-690;RUA ANTONIO MANOEL, 701 - CENTRO;10.0;ATIVO
2107;4314902;431490;466;Metropolitana;10;REGIÃO 10 - CAPITAL E VALE DO GRAVATAÍ;01ª CRS;Porto Alegre;2237849;INSTITUTO DE CARDIOLOGIA;;FUNDACAO UNIVERSITARIA DE CARDIOLOGIA INST DE CARDIOLOGIA;7;HOSPITAL ESPECIALIZADO;ENTIDADES SEM FINS LUCRATIVOS;MUNICIPAL;-30.049064;-51.209011;Hospital; ;90620-001;AV PRINCESA ISABEL, 395 - AZENHA;;ATIVO
2113;4314100;431410;473;Norte;17;REGIÃO 17 - PLANALTO;06ª CRS;Passo Fundo;2247054;HOSPITAL PSIQUIATRICO BEZERRA DE MENEZES;;HOSPITAL DE CLINICAS DE PASSO FUNDO;7;HOSPITAL ESPECIALIZADO;ENTIDADES SEM FINS LUCRATIVOS;ESTADUAL;-28.24652279;-52.41528259;Hospital;;99020-570;RUA OURO PRETO, 240 - DONA ELISA;;ATIVO
2134;4316907;431690;457;Centro-Oeste;1;REGIÃO 01 - VERDES CAMPOS;04ª CRS;Santa Maria;2244276;COMPLEXO HOSPITALAR ASTROGILDO DE AZEVEDO;;HOSPITAL DE CARIDADE DR ASTROGILDO DE AZEVEDO;5;HOSPITAL GERAL;ENTIDADES SEM FINS LUCRATIVOS;ESTADUAL;-29.692275;-53.807235;Hospital; ;97015-513;AV PRESIDENTE VARGAS, 2291 - CENTRO;40.0;ATIVO
2139;4310504;431050;471;Norte;15;REGIÃO 15 - CAMINHO DAS ÁGUAS;02ª CRS;Iraí;2228653;HOSPITAL N S AUXILIADORA IRAI;;SOCIEDADE HOSPITALAR N S AUXILIADORA;5;HOSPITAL GERAL;ENTIDADES SEM FINS LUCRATIVOS;ESTADUAL;-27.194038;-53.257052;Hospital; ;98460-000;RUA TORRES GONCALVES, 687 - CENTRO;;ATIVO
2142;4314506;431450;477;Sul;21;REGIÃO 21 - SUL;03ª CRS;Pinheiro Machado;2233320;HOSPITAL PINHEIRO MACHADO;;ASSOCIACAO DE ASSITENCIA SOCIAL HOSPITAL PINHEIRO MACHADO;5;HOSPITAL GERAL;ENTIDADES SEM FINS LUCRATIVOS;ESTADUAL;-31.57951;-53.386137;Hospital; ;96470-000;RUA DUTRA ANDRADES, 1221 - CENTRO;;ATIVO
2148;4310702;431070;472;Norte;16;REGIÃO 16 - ALTO URUGUAI GAÚCHO;11ª CRS;Itatiba do Sul;2249650;HOSPITAL MUNICIPAL SAO ROQUE;(54)35281164;PREFEITURA MUNICIPAL DE ITATIBA DO SUL;20;PRONTO SOCORRO GERAL;ADMINISTRAÇÃO PÚBLICA;ESTADUAL;-27.386461;-52.452114;Hospital;;99760-000;RUA CHILE, 467 - CENTRO;;ATIVO
2151;4313706;431370;476;Norte;20;REGIÃO 20 - ROTA DA PRODUÇÃO;15ª CRS;Palmeira das Missões;2235323;HOSPITAL DE CARIDADE PALMEIRA DAS MISSOES;;ASSOCIACAO DO HOSPITAL DE CARIDADE DE PALMEIRA DAS MISSOES;5;HOSPITAL GERAL;ENTIDADES SEM FINS LUCRATIVOS;ESTADUAL;-27.900165;-53.317257;Hospital;PREDIO;98300-000;RUA MARECHAL DEODORO, 251 - CENTRO;;ATIVO
2165;4314100;431410;473;Norte;17;REGIÃO 17 - PLANALTO;06ª CRS;Passo Fundo;2245663;IOT -  PASSO FUNDO;;INSTITUTO DE ORTOPEDIA E TRAUMATOLOGIA DE PASSO FUNDO LTDA;5;HOSPITAL GERAL;ENTIDADES SEM FINS LUCRATIVOS;ESTADUAL;-28.262212;-52.417109;Hospital; ;99010-112;RUA URUGUAI, 2050 - CENTRO;10.0;ATIVO
2172;4314902;431490;466;Metropolitana;10;REGIÃO 10 - CAPITAL E VALE DO GRAVATAÍ;01ª CRS;Porto Alegre;3373517;SANATORIO SAO JOSE LTDA;;SANATORIO SAO JOSE LTDA;7;HOSPITAL ESPECIALIZADO;ENTIDADES EMPRESARIAIS;MUNICIPAL;-30.0870296;-51.1887576;Hospital;;91712-320;AV PROFESSOR OSCAR PEREIRA, 4821 - GLORIA;;ATIVO
2180;4313409;431340;463;Metropolitana;7;REGIÃO 07 - VALE DOS SINOS;01ª CRS;Novo Hamburgo;9747087;HOSPITAL DA VISAO LIONS IBSAUDE;;INSTITUTO BRASILEIRO DE SAUDE ENSINO PESQUISA E EXTENSAO P;62;HOSPITAL/DIA - ISOLADO;ENTIDADES SEM FINS LUCRATIVOS;MUNICIPAL;-29.68867036;-51.11269319;Hospital;;93548150;AVENIDA FRANCISCO MANUEL DA SILVA, 749 - JARDIM MAUA;;ATIVO
2186;4314902;431490;466;Metropolitana;10;REGIÃO 10 - CAPITAL E VALE DO GRAVATAÍ;01ª CRS;Porto Alegre;2237571;HOSPITAL NOSSA SENHORA DA CONCEICAO SA;;HOSPITAL NOSSA SENHORA DA CONCEICAO SA;5;HOSPITAL GERAL;ENTIDADES EMPRESARIAIS;MUNICIPAL;-30.016597;-51.159043;Hospital; ;91350-200;AV FRANCISCO TREIN, 596 - CRISTO REDENTOR;69.0;ATIVO
2211;4317103;431710;459;Centro-Oeste;3;REGIÃO 03 - FRONTEIRA OESTE;10ª CRS;Santana do Livramento;3913392;CENTRO HOSPITALAR SANTANENSE LTDA;;CENTRO HOSPITALAR SANTANENSE LTDA;5;HOSPITAL GERAL;ENTIDADES EMPRESARIAIS;MUNICIPAL;-30.898776;-55.529719;Hospital; ;97574-022;AV ALMIRANTE TAMANDARE, 2880 - CENTRO;;ATIVO
2214;4321907;432190;471;Norte;15;REGIÃO 15 - CAMINHO DAS ÁGUAS;02ª CRS;Três Passos;2228726;HOSPITAL CARIDADE TRES PASSOS;;ASOCIACAO HOSPITAL DE CARIDADE DE TRES PASSOS;5;HOSPITAL GERAL;ENTIDADES SEM FINS LUCRATIVOS;ESTADUAL;-27.450873;-53.936409;Hospital;PREDIO;98600-000;RUA MARIO TOTTA, 157 - CENTRO;10.0;ATIVO
2234;4302709;430270;465;Metropolitana;9;REGIÃO 09 - CARBONÍFERA/COSTA DOCE;01ª CRS;Butiá;2265958;HOSPITAL DE BUTIA;;FUNDACAO MUNICIPAL DE SAUDE;5;HOSPITAL GERAL;ADMINISTRAÇÃO PÚBLICA;ESTADUAL;-30.125757;-51.962104;Hospital;PREDIO;96750-000;AV HONORIO HERMETO, 310 - CIDADE ALTA;;ATIVO
2237;4300109;430010;457;Centro-Oeste;1;REGIÃO 01 - VERDES CAMPOS;04ª CRS;Agudo;2234386;HOSPITAL AGUDO;;ASSOCIACAO HOSPITAL AGUDO;5;HOSPITAL GERAL;ENTIDADES SEM FINS LUCRATIVOS;ESTADUAL;-29.649044;-53.2412;Hospital; ;96540-000;AV EUCLIDES KLIEMANN, 300 - CENTRO;;ATIVO
2240;4316501;431650;464;Metropolitana;8;REGIÃO 08 - VALE DO CAÍ E METROPOLITANA;01ª CRS;Salvador do Sul;2227681;HOSPITAL SAO SALVADOR;;SOCIEDADE BENEFICENTE HOSPITALAR SAO SALVADOR;5;HOSPITAL GERAL;ENTIDADES SEM FINS LUCRATIVOS;ESTADUAL;-29.438679;-51.511563;Hospital; ;95750-000;RUA ELDA TREVISAN, 20 - CENTRO;;ATIVO
2250;4312906;431290;481;Serra;25;REGIÃO 25 - VINHEDOS E BASALTO;05ª CRS;Nova Bassano;5230241;ACONSEL;;ASSOCIACAO COMUNITARIA HOSPITAL NOSSA SENHORA DE LOURDES;5;HOSPITAL GERAL;ENTIDADES SEM FINS LUCRATIVOS;MUNICIPAL;-28.722934;-51.704486;Hospital; ;95340-000;RUA PINHEIRO MACHADO, 982 - CENTRO;;ATIVO
2273;4320263;432026;483;Vales;27;REGIÃO 27 - JACUÍ CENTRO;08ª CRS;Segredo;2234475;HOSPITAL SAO JOAO EVANGELISTA SEGREDO;;ASSOCIACAO CULT RECREATIVA BENEFICENTE SAO MARCOS;5;HOSPITAL GERAL;ENTIDADES SEM FINS LUCRATIVOS;ESTADUAL;-29.341435;-52.979212;Hospital; ;96910-000;RUA DOS IMIGRANTES, 713 - CENTRO;;ATIVO
2279;4323804;432380;460;Metropolitana;4;REGIÃO 04 - BELAS PRAIAS;18ª CRS;Xangri-lá;958077;LIFEPLUS HOSPITAL E CENTRO CLINICO;;HOSPITAL LIFEPLUS LITORAL NORTE LTDA;5;HOSPITAL GERAL;ENTIDADES EMPRESARIAIS;MUNICIPAL;-29.8028079;-50.0412311;Hospital;;95588-000;RUA ELIAS JOAO MEDEIROS, 2001 - SANTORINI;;ATIVO
2291;4322509;432250;480;Serra;24;REGIÃO 24 - CAMPOS DE CIMA DA SERRA;05ª CRS;Vacaria;2241048;HOSPITAL NOSSA SENHORA DA OLIVEIRA;;ASSOCIACAO CARITATIVO LITERARIA SAO JOSE;5;HOSPITAL GERAL;ENTIDADES SEM FINS LUCRATIVOS;MUNICIPAL;-28.502108;-50.935336;Hospital; ;95200-000;RUA PINHEIRO MACHADO, 448 - CENTRO;10.0;ATIVO
2298;4305108;430510;479;Serra;23;REGIÃO 23 - CAXIAS E HORTÊNSIAS;05ª CRS;Caxias do Sul;9728317;HOSPITAL UNIMED UNIDADE MATERNO INFANTIL;;UNIMED NORDESTE RS SOCIEDADE COOP DE SERV MEDICOS LTDA;7;HOSPITAL ESPECIALIZADO;ENTIDADES EMPRESARIAIS;MUNICIPAL;-29.16263;-51.197052;Hospital;BLOCO B;95013-000;CARLOS BIANCHINI, 2020 - MARECHAL FLORIANO;;ATIVO
2327;4314407;431440;477;Sul;21;REGIÃO 21 - SUL;03ª CRS;Pelotas;2253690;CLINICANP;;HOSPITAL CLINICANP LTDA;5;HOSPITAL GERAL;ENTIDADES EMPRESARIAIS;MUNICIPAL;-31.754891;-52.335033;Hospital; ;96015-000;RUA QUINZE DE NOVEMBRO, 1100 - CENTRO;6.0;ATIVO
2342;4314100;431410;473;Norte;17;REGIÃO 17 - PLANALTO;06ª CRS;Passo Fundo;3141330;PRONTOCLINICA - PASSO FUNDO;;HOSPITAL DE PRONTOCLINICAS LTDA;5;HOSPITAL GERAL;ENTIDADES EMPRESARIAIS;MUNICIPAL;-28.258059;-52.409235;Hospital; ;99020-220;TRAVESSA DR ARTHUR LEITE, 37 - CENTRO;9.0;ATIVO
2344;4316105;431610;476;Norte;20;REGIÃO 20 - ROTA DA PRODUÇÃO;15ª CRS;Ronda Alta;2235412;HOSPITAL DOS TRABALHADORES - ATRA;;ASSOCIACAO DOS TRABALHADORES DE RONDA ALTA;5;HOSPITAL GERAL;ENTIDADES SEM FINS LUCRATIVOS;ESTADUAL;-27.784142;-52.80317;Hospital;CASA;99670-000;RUA JULIO DE CASTILHOS, 223 - CENTRO;;ATIVO
2369;4309605;430960;470;Missioneira;14;REGIÃO 14 - FRONTEIRA NOROESTE;14ª CRS;Horizontina;7607547;ASSOCIACAO BENEFICENTE OSWALDO CRUZ DE HORIZONTINA;;ASSOCIACAO BENEFICENTE OSWALDO CRUZ DE HORIZONTINA;5;HOSPITAL GERAL;ENTIDADES SEM FINS LUCRATIVOS;ESTADUAL;-27.629013;-54.300967;Hospital; ;98920-000;RUA OSVALDO CRUZ, 154 - OSVALDO CRUZ;;ATIVO
2372;4318705;431870;463;Metropolitana;7;REGIÃO 07 - VALE DOS SINOS;01ª CRS;São Leopoldo;7233086;HOSPITAL UNIMED SAO LEOPOLDO;;UNIMED VALE DOS SINOS COOP DE ASSISTENCIA A SAUDE LTDA;5;HOSPITAL GERAL;ENTIDADES EMPRESARIAIS;MUNICIPAL;-29.768;-51.150463;Hospital;;93025-630;RUA CONCEICAO, 1050 - CENTRO;;ATIVO
2389;4318606;431860;474;Norte;18;REGIÃO 18 - ARAUCÁRIAS;06ª CRS;São José do Ouro;2246791;HOSPITAL SAO JOSE - SAO JOSE DO OURO;;FUNDACAO ARAUCARIA;5;HOSPITAL GERAL;ENTIDADES SEM FINS LUCRATIVOS;ESTADUAL;-27.773142;-51.60128;Hospital; ;99870-000;AV MARECHAL FLORIANO, 801 - CENTRO;;ATIVO
2391;4319505;431950;464;Metropolitana;8;REGIÃO 08 - VALE DO CAÍ E METROPOLITANA;01ª CRS;São Sebastião do Caí;2227908;HOSPITAL SAGRADA FAMILIA;;ASSOCIACAO CONGREGACAO DE SANTA CATARINA;5;HOSPITAL GERAL;ENTIDADES SEM FINS LUCRATIVOS;ESTADUAL;-29.588864;-51.369389;Hospital; ;95760-000;RUA MADRE REGINA PROTMANN, 567 - CENTRO;;ATIVO
2466;4304705;430470;473;Norte;17;REGIÃO 17 - PLANALTO;06ª CRS;Carazinho;5158656;UNIMED REGIAO DA PRODUCAO;;UNIMED REGIAO DA PRODUCAO RS COOPERATIVA DE ASSISTENCIA A;62;HOSPITAL/DIA - ISOLADO;ENTIDADES EMPRESARIAIS;MUNICIPAL;-28.28224645;-52.80544314;Hospital;;99500-000;PATRIA, 1795 - SOMMER;;ATIVO
2419;4312401;431240;464;Metropolitana;8;REGIÃO 08 - VALE DO CAÍ E METROPOLITANA;01ª CRS;Montenegro;2257556;HOSPITAL MONTENEGRO;;ASSOCIACAO ORDEM AUXILIADORA DE SENHORAS EVANGELICAS DE MONT;5;HOSPITAL GERAL;ENTIDADES SEM FINS LUCRATIVOS;ESTADUAL;-29.686648;-51.463973;Hospital; ;95780-000;RUA ASSIS BRASIL, 1621 - CENTRO;10.0;ATIVO
2423;4314050;431405;462;Metropolitana;6;REGIÃO 06 - VALE DO PARANHANA E COSTA SERRA;01ª CRS;Parobé;2227762;HOSPITAL SAO FRANCISCO DE ASSIS PAROBE;;ASSOCIACAO BENEFICENTE DE PAROBE;5;HOSPITAL GERAL;ENTIDADES SEM FINS LUCRATIVOS;ESTADUAL;-29.624916;-50.838452;Hospital; ;95630-000;RUA THENO JOSE BERLITZ, 50 - CENTRO;;ATIVO
2471;4316451;431645;468;Missioneira;12;REGIÃO 12 - PORTAL DAS MISSÕES;09ª CRS;Salto do Jacuí;2263882;HOSPITAL MUNICIPAL DR ADERBAL SCHNEIDER;;HOSPITAL MUNICIPAL DR ADERBAL SCHNEIDER;5;HOSPITAL GERAL;ADMINISTRAÇÃO PÚBLICA;MUNICIPAL;-29.085371;-53.225497;Hospital; ;99440-000;RUA PASSO REAL, 9 - NOVA JACUI;;ATIVO
2484;4300307;430030;470;Missioneira;14;REGIÃO 14 - FRONTEIRA NOROESTE;14ª CRS;Alecrim;2707993;HOSPITAL DE CARIDADE DE ALECRIM;;SOC HOSPITAL DE CARIDADE DE ALECRIM;5;HOSPITAL GERAL;ENTIDADES SEM FINS LUCRATIVOS;ESTADUAL;-27.656469;-54.764369;Hospital;CASA;98950-000;RUA OSVALDO CRUZ, 215 - CENTRO;;ATIVO
2499;4314407;431440;477;Sul;21;REGIÃO 21 - SUL;03ª CRS;Pelotas;4550773;HRPS PRONTO SOCORRO;;HOSPITAL REGIONAL DE PRONTO SOCORRO DE PELOTAS;5;HOSPITAL GERAL;ADMINISTRAÇÃO PÚBLICA;MUNICIPAL;-31.7573176;-52.3500495;Hospital;;96015140;AVENIDA BENTO GONCALVES, 4590 - CENTRO;;ATIVO
2523;4315503;431550;457;Centro-Oeste;1;REGIÃO 01 - VERDES CAMPOS;04ª CRS;Restinga Seca;2244233;HOSPITAL DE CARIDADE SAO FRANCISCO;;HOSPITAL DE CARIDADE SAO FRANCISCO;5;HOSPITAL GERAL;ENTIDADES SEM FINS LUCRATIVOS;MUNICIPAL;-29.815522;-53.371823;Hospital; ;97200-000;RUA MOISES CANTARELLI, 287 - CENTRO;;ATIVO
2536;4314902;431490;466;Metropolitana;10;REGIÃO 10 - CAPITAL E VALE DO GRAVATAÍ;01ª CRS;Porto Alegre;2237156;HBMPA;;HOSPITAL DA BRIGADA MILITAR DE PORTO ALEGRE;5;HOSPITAL GERAL;ADMINISTRAÇÃO PÚBLICA;MUNICIPAL;-30.097873;-51.251136;Hospital; ;91900-590;RUA DR CASTRO DE MENEZES, 155 - CRISTAL;20.0;ATIVO
2544;4311007;431100;477;Sul;21;REGIÃO 21 - SUL;03ª CRS;Jaguarão;2233401;SANTA CASA DE CARIDADE JAGUARAO;;SANTA CASA DE CARIDADE DE JAGUARAO;5;HOSPITAL GERAL;ENTIDADES SEM FINS LUCRATIVOS;ESTADUAL;-32.564111;-53.371006;Hospital; ;96300-000;PRACA DR HERMES PINTO AFONSO, 0 - CENTRO;;ATIVO
2556;4316907;431690;457;Centro-Oeste;1;REGIÃO 01 - VERDES CAMPOS;04ª CRS;Santa Maria;5922216;HOSPITAL CASA DE SAUDE;;ASSOCIACAO FRANCISCANA DE ASSISTENCIA A SAUDE;5;HOSPITAL GERAL;ENTIDADES SEM FINS LUCRATIVOS;ESTADUAL;-29.671871;-53.807152;Hospital;PREDIO CENTRAL;97045-060;RUA ARY LAGRANHA DOMINGUES, 188 - PERPETUO SOCORRO;;ATIVO
2567;4314902;431490;466;Metropolitana;10;REGIÃO 10 - CAPITAL E VALE DO GRAVATAÍ;01ª CRS;Porto Alegre;2237881;HOSPITAL BANCO DE OLHOS PORTO ALEGRE;;ASSOCIACAO DE LITERATURA E BENEFICENCIA;7;HOSPITAL ESPECIALIZADO;ENTIDADES SEM FINS LUCRATIVOS;MUNICIPAL;-30.022;-51.153944;Hospital;;91360-090;RUA ENGENHEIRO WALTER BOEHL, 285 - VILA IPIRANGA;;ATIVO
2571;4314803;431480;463;Metropolitana;7;REGIÃO 07 - VALE DOS SINOS;01ª CRS;Portão;2232170;HOSPITAL DE PORTAO;;FUNDACAO HOSPITALAR EDUCACIONAL E SOCIAL DE PORTAO;5;HOSPITAL GERAL;ENTIDADES SEM FINS LUCRATIVOS;ESTADUAL;-29.690121;-51.243775;Hospital;1;93180-000;SAO LEOPOLDO, 996 - CENTRO;;ATIVO
2596;4302105;430210;481;Serra;25;REGIÃO 25 - VINHEDOS E BASALTO;05ª CRS;Bento Gonçalves;6275508;CLINICA CIRURGICA BENTO GONCALVES LTDA ME;;CLINICA CIRURGICA BENTO GONCALVES LTDA ME;62;HOSPITAL/DIA - ISOLADO;ENTIDADES EMPRESARIAIS;MUNICIPAL;-29.1704639;-51.5085607;Hospital;SALA 01;95703-170;RUA XINGU, 577 - SAO BENTO;;ATIVO
2609;4314902;431490;466;Metropolitana;10;REGIÃO 10 - CAPITAL E VALE DO GRAVATAÍ;01ª CRS;Porto Alegre;2237822;HOSPITAL MATERNO INFANTIL PRESIDENTE VARGAS;;HOSPITAL MATERNO INFANTIL PRESIDENTE VARGAS;5;HOSPITAL GERAL;ADMINISTRAÇÃO PÚBLICA;MUNICIPAL;-30.029465;-51.214924;Hospital; ;90035-076;AV INDEPENDENCIA, 661 - INDEPENDENCIA;;ATIVO
2617;4314902;431490;466;Metropolitana;10;REGIÃO 10 - CAPITAL E VALE DO GRAVATAÍ;01ª CRS;Porto Alegre;6894399;SAO PIETRO SAUDE;;SAO PIETRO SAUDE;62;HOSPITAL/DIA - ISOLADO;ENTIDADES SEM FINS LUCRATIVOS;MUNICIPAL;-30.0192207;-51.1866716;Hospital;;90550-141;AV DOM PEDRO II, 1379 - HIGIENOPOLIS;;ATIVO
2624;4300901;430090;472;Norte;16;REGIÃO 16 - ALTO URUGUAI GAÚCHO;11ª CRS;Aratiba;2249502;ACHA - ARATIBA;;ASSOCIACAO COMUNITARIA HOSPITALAR DE ARATIBA;5;HOSPITAL GERAL;ENTIDADES SEM FINS LUCRATIVOS;ESTADUAL;-27.395367;-52.300186;Hospital; ;99770-000;RUA SANTO GRANZOTO, 346 - CENTRO;;ATIVO
2633;4320701;432070;483;Vales;27;REGIÃO 27 - JACUÍ CENTRO;08ª CRS;Sobradinho;9016554;HOSPITAL SAO JOAO EVANGELISTA SOBRADINHO;;ASSOCIACAO CULTURAL RECREATIVA E BENEFICIENTE S MARCOS;5;HOSPITAL GERAL;ENTIDADES SEM FINS LUCRATIVOS;ESTADUAL;-29.412984;-53.02636;Hospital;SALA;96900-000;JOAO ANTONIO, 747 - CENTRO;;ATIVO
2636;4316808;431680;484;Vales;28;REGIÃO 28 - VINTE E OITO;13ª CRS;Santa Cruz do Sul;2255928;HOSPITAL MONTE ALVERNE;;HOSPITAL BENEFICENTE MONTE ALVERNE;5;HOSPITAL GERAL;ENTIDADES SEM FINS LUCRATIVOS;MUNICIPAL;-29.55947;-52.33451;Hospital; ;96859-000;RUA PEDRO EGGLER, 0 - MONTE ALVERNE;;ATIVO
2650;4316907;431690;457;Centro-Oeste;1;REGIÃO 01 - VERDES CAMPOS;04ª CRS;Santa Maria;2244306;HUSM HOSPITAL UNIVERSITARIO DE SANTA MARIA;;HOSPITAL UNIVERSITARIO DE SANTA MARIA;5;HOSPITAL GERAL;ADMINISTRAÇÃO PÚBLICA;ESTADUAL;-29.713807;-53.715518;Hospital;CAMPUS;97105-340;AVN RORAIMA, 0 - CAMOBI;;ATIVO
2689;4314902;431490;466;Metropolitana;10;REGIÃO 10 - CAPITAL E VALE DO GRAVATAÍ;01ª CRS;Porto Alegre;2237180;HOSPITAL ESPIRITA DE PORTO ALEGRE;;HOSPITAL ESPIRITA DE PORTO ALEGRE;7;HOSPITAL ESPECIALIZADO;ENTIDADES SEM FINS LUCRATIVOS;MUNICIPAL;-30.0866943;-51.206987;Hospital;;91720-440;PRACA SIMOES LOPES NETO, 175 - TERESOPOLIS;;ATIVO
2711;4308102;430810;482;Serra;26;REGIÃO 26 - UVA VALE;05ª CRS;Feliz;6014194;HOSPITAL MUNICIPAL SCHLATER;;ASSOCIACAO DE SAUDE DE FELIZ;5;HOSPITAL GERAL;ENTIDADES SEM FINS LUCRATIVOS;MUNICIPAL;-29.447307;-51.308228;Hospital; ;95770-000;RUA SANTA CATARINA, 900 - CENTRO;;ATIVO
2722;4300505;430050;471;Norte;15;REGIÃO 15 - CAMINHO DAS ÁGUAS;02ª CRS;Alpestre;2228564;HOSPITAL NOSSA SENHORA;;SOCIEDADE MEDICA DE ALPESTRE LTDA;5;HOSPITAL GERAL;ENTIDADES SEM FINS LUCRATIVOS;ESTADUAL;-27.252258;-53.035885;Hospital;PROPRIO;98480-000;RUA ALVARO LEITAO, 523 - CENTRO;;ATIVO
2753;4314902;431490;466;Metropolitana;10;REGIÃO 10 - CAPITAL E VALE DO GRAVATAÍ;01ª CRS;Porto Alegre;3007847;HOSPITAL MAE DE DEUS;;ASSOCIACAO EDUCADORA SAO CARLOS AESC;5;HOSPITAL GERAL;ENTIDADES SEM FINS LUCRATIVOS;MUNICIPAL;-30.059059;-51.229103;Hospital; ;90880-480;RUA JOSE DE ALENCAR, 286 - MENINO DEUS;50.0;ATIVO
2748;4307005;430700;472;Norte;16;REGIÃO 16 - ALTO URUGUAI GAÚCHO;11ª CRS;Erechim;2249669;HOSPITAL UNIMED ERECHIM;;SOCIEDADE COOPERATIVA SERVICOS MEDICOS LTDA UNIMED;5;HOSPITAL GERAL;ENTIDADES EMPRESARIAIS;MUNICIPAL;-27.648044;-52.267016;Hospital; ;99700-970;RUA SERGIPE, 44 - CENTRO;;ATIVO
2754;4311502;431150;478;Sul;22;REGIÃO 22 - PAMPA;07ª CRS;Lavras do Sul;2262029;FUNDACAO MEDICO HOSPITALAR;;FUNDACAO MEDICO HOSPITALAR DR HONOR TEIXEIRA DA COSTA;5;HOSPITAL GERAL;ADMINISTRAÇÃO PÚBLICA;ESTADUAL;-30.815963;-53.902124;Hospital;CASA;97390-000;AV 9 DE MAIO, 141 - HOSPITAL;;ATIVO
2764;4321600;432160;461;Metropolitana;5;REGIÃO 05 - BONS VENTOS;18ª CRS;Tramandaí;2793008;HOSPITAL TRAMANDAI;;FUNDACAO HOSPITAL MUNICIPAL GETULIO VARGAS SAPUCAIA DO SUL;5;HOSPITAL GERAL;ENTIDADES SEM FINS LUCRATIVOS;ESTADUAL;-29.991901;-50.139733;Hospital; ;95590-000;AV EMANCIPACAO, 1255 - CENTRO;10.0;ATIVO
2769;4314902;431490;466;Metropolitana;10;REGIÃO 10 - CAPITAL E VALE DO GRAVATAÍ;01ª CRS;Porto Alegre;7092571;HOSPITAL INDEPENDENCIA;;SOCIEDDADE SULINA DIVINA PROVIDENCIA HOSPITAL INDEPENDENCIA;5;HOSPITAL GERAL;ENTIDADES SEM FINS LUCRATIVOS;MUNICIPAL;-30.060989;-51.149056;Hospital; ;91430-000;AV ANTONIO CARVALHO, 450 - JARDIM CARVALHO;10.0;ATIVO
2770;4311205;431120;457;Centro-Oeste;1;REGIÃO 01 - VERDES CAMPOS;04ª CRS;Júlio de Castilhos;2244098;HOSPITAL BERNARDINA SALLES DE BARROS;;HOSPITAL BERNARDINA SALLES DE BARROS;5;HOSPITAL GERAL;ENTIDADES SEM FINS LUCRATIVOS;ESTADUAL;-29.226993;-53.677561;Hospital; ;98130-000;RUA ANTONIO CARBONE, 0 - CENTRO;;ATIVO
2771;4320453;432045;485;Vales;29;REGIÃO 29 - VALES E MONTANHAS;16ª CRS;Sério;2252066;HOSPITAL SAO JOSE -  SERIO;;HOSPITAL DE CARIDADE SAO JOSE;15;UNIDADE MISTA;ENTIDADES SEM FINS LUCRATIVOS;MUNICIPAL;-29.385068;-52.267096;Hospital; ;95918-000;RUA MAURICIO CARDOSO, 940 - CENTRO;;ATIVO
2779;4314902;431490;466;Metropolitana;10;REGIÃO 10 - CAPITAL E VALE DO GRAVATAÍ;01ª CRS;Porto Alegre;3019721;HOSPITAL MAE DE DEUS UNIDADE CARLOS GOMES;;ASSOCIACAO EDUCADORA SAO CARLOS AESC;62;HOSPITAL/DIA - ISOLADO;ENTIDADES SEM FINS LUCRATIVOS;MUNICIPAL;-30.0626381;-51.2305127;Hospital;;90470-340;R SOLEDADE, 569 - TRES FIQUEIRAS;;ATIVO
2781;4314100;431410;473;Norte;17;REGIÃO 17 - PLANALTO;06ª CRS;Passo Fundo;2246929;HOSPITAL DA CIDADE - PASSO FUNDO;;HOSPITAL DA CIDADE DE PASSO FUNDO;5;HOSPITAL GERAL;ENTIDADES SEM FINS LUCRATIVOS;ESTADUAL;-28.256172;-52.403024;Hospital; ;99010-260;RUA TIRADENTES, 295 - CENTRO;31.0;ATIVO
2789;4322707;432270;484;Vales;28;REGIÃO 28 - VINTE E OITO;13ª CRS;Vera Cruz;2236354;HOSPITAL VERA CRUZ;;FUNDACAO DE SAUDE DR JACOB BLESZ;5;HOSPITAL GERAL;ENTIDADES SEM FINS LUCRATIVOS;ESTADUAL;-29.716859;-52.500549;Hospital; ;96880-000;RUA ROBERTO GRUENDLING, 125 - CENTRO;;ATIVO
2805;4315750;431575;462;Metropolitana;6;REGIÃO 06 - VALE DO PARANHANA E COSTA SERRA;01ª CRS;Riozinho;2227703;HOSPITAL NOSSA SENHORA DO ROSARIO DE RIOZINHO;;ASSOCIACAO FILHAS DE SAO CAMILO;5;HOSPITAL GERAL;ENTIDADES SEM FINS LUCRATIVOS;ESTADUAL;-29.640637;-50.458461;Hospital; ;95695-000;AV GUERINO PANDOLFO, 460 - CENTRO;;ATIVO
2816;4318002;431800;467;Missioneira;11;REGIÃO 11 - SETE POVOS DAS MISSÕES;12ª CRS;São Borja;2248298;HOSPITAL IVAN GOULART;;FUNDACAO IVAN GOULART;5;HOSPITAL GERAL;ENTIDADES SEM FINS LUCRATIVOS;MUNICIPAL;-28.658212;-55.998031;Hospital; ;97670-000;RUA PRESIDENTE VARGAS, 1440 - CENTRO;9.0;ATIVO
2824;4307807;430780;486;Vales;30;REGIÃO 30 - VALE DA LUZ;16ª CRS;Estrela;2252260;HOSPITAL ESTRELA;;ASSOCIACAO FRANCISCANA DE ASSISTENCIA A SAUDE;5;HOSPITAL GERAL;ENTIDADES SEM FINS LUCRATIVOS;MUNICIPAL;-29.505712;-51.965853;Hospital;CX POSTAL 145;95880-000;RUA GERALDO PEREIRA, 405 - CENTRO;10.0;ATIVO
2872;4313409;431340;463;Metropolitana;7;REGIÃO 07 - VALE DOS SINOS;01ª CRS;Novo Hamburgo;7895240;PRISMA CLINICA DE OLHOS NOVO HAMBURGO;;INSTITUTO DE OFTALMOLOGIA IGREJINHA LTDA;62;HOSPITAL/DIA - ISOLADO;ENTIDADES EMPRESARIAIS;MUNICIPAL;-29.7042843;-51.135483;Hospital;;93334-155;AVENIDA NACOES UNIDAS, 4085 - IDEAL;;ATIVO
2876;4318101;431810;458;Centro-Oeste;2;REGIÃO 02 - ENTRE RIOS;04ª CRS;São Francisco de Assis;2244330;HOSPITAL SANTO ANTONIO SAO FRANCISCO DE ASSIS;;HOSPITAL SANTO ANTONIO;5;HOSPITAL GERAL;ENTIDADES SEM FINS LUCRATIVOS;ESTADUAL;-29.557502;-55.126677;Hospital; ;97610-000;RUA 13 DE JANEIRO, 1424 - CENTRO;;ATIVO
2881;4312054;431205;485;Vales;29;REGIÃO 29 - VALES E MONTANHAS;16ª CRS;Marques de Souza;2252007;HOSPITAL MARQUES DE SOUZA;;ASSOCIACAO HOSPITALAR MARQUES DE SOUZA;5;HOSPITAL GERAL;ENTIDADES SEM FINS LUCRATIVOS;MUNICIPAL;-29.32717;-52.092644;Hospital; ;95923-000;RUA 10 DE NOVEMBRO, 806 - CENTRO;;ATIVO
2883;4306403;430640;463;Metropolitana;7;REGIÃO 07 - VALE DOS SINOS;01ª CRS;Dois Irmãos;6844138;HOSPITAL SAO JOSE DE DOIS IRMAOS IBSAUDE;;INSTITUTO DE SAUDE E EDUCACAO VIDA;5;HOSPITAL GERAL;ENTIDADES SEM FINS LUCRATIVOS;ESTADUAL;-29.588514;-51.087932;Hospital; ;93950-000;AV SAO MIGUEL, 482 - CENTRO;;ATIVO
2895;4309506;430950;467;Missioneira;11;REGIÃO 11 - SETE POVOS DAS MISSÕES;12ª CRS;Guarani das Missões;2259931;HOSPITAL SANTA TERESA GUARANI DAS MISSOES;;ASSOCIACAO HOSPITALAR SANTA TERESA;5;HOSPITAL GERAL;ENTIDADES SEM FINS LUCRATIVOS;ESTADUAL;-28.148176;-54.560442;Hospital; ;97950-000;RUA COMANDAI, 889 - CENTRO;;ATIVO
2908;4322301;432230;470;Missioneira;14;REGIÃO 14 - FRONTEIRA NOROESTE;14ª CRS;Tuparendi;5729297;CAMS;;CENTRO DE ASSISTENCIA MEDICO SOCIAL;5;HOSPITAL GERAL;ENTIDADES SEM FINS LUCRATIVOS;ESTADUAL;-27.760477;-54.480586;Hospital;SALA 05;98940-000;AV URUGUAI, 2110 - CENTRO;;ATIVO
2921;4307609;430760;463;Metropolitana;7;REGIÃO 07 - VALE DOS SINOS;01ª CRS;Estância Velha;2707632;HOSPITAL MUNICIPAL GETULIO VARGAS  EST VELHA;;INSTITUTO DE SAUDE E EDUCACAO VIDA;5;HOSPITAL GERAL;ADMINISTRAÇÃO PÚBLICA;DUPLA;-29.648523;-51.174964;Hospital; ;93600-000;R ADOLFO MATTES, 236 - CENTRO;;ATIVO
2928;4317905;431790;470;Missioneira;14;REGIÃO 14 - FRONTEIRA NOROESTE;14ª CRS;Santo Cristo;2250829;HOSPITAL DE CARIDADE DE SANTO CRISTO;;HOSPITAL DE CARIDADE DE SANTO CRISTO;5;HOSPITAL GERAL;ENTIDADES SEM FINS LUCRATIVOS;ESTADUAL;-27.823102;-54.66591;Hospital;CASA;98960-000;RUA AMANDAU, 157 - CENTRO;;ATIVO
2933;4319307;431930;470;Missioneira;14;REGIÃO 14 - FRONTEIRA NOROESTE;14ª CRS;São Paulo das Missões;2250713;HOSPITAL DE CARIDADE SAO PAULO SAO PAULO DAS MISSOES;;ASSOCIACAO FRANCISCANA DE ASSISTENCIA A SAUDE;5;HOSPITAL GERAL;ENTIDADES SEM FINS LUCRATIVOS;DUPLA;-28.021473;-54.934776;Hospital;PREDIO;97980-000;RUA INDEPENDENCIA, 265 - CENTRO;;ATIVO
2967;4306502;430650;465;Metropolitana;9;REGIÃO 09 - CARBONÍFERA/COSTA DOCE;01ª CRS;Dom Feliciano;6953689;ASDOMF;;ASSOCIACAO DE SAUDE DE DOM FELICIANO;5;HOSPITAL GERAL;ENTIDADES SEM FINS LUCRATIVOS;ESTADUAL;-30.70572123;-52.10853583;Hospital; ;96190-000;AV BORGES DE MEDEIRO, 648 - CENTRO;;ATIVO
2971;4314902;431490;466;Metropolitana;10;REGIÃO 10 - CAPITAL E VALE DO GRAVATAÍ;01ª CRS;Porto Alegre;4382056;HOSPITAL DA PLASTICA POA;;DASOS HOSPITAIS E CLINICAS S A;62;HOSPITAL/DIA - ISOLADO;ENTIDADES EMPRESARIAIS;MUNICIPAL;-30.0180148;-51.2031805;Hospital;SALA 01;90560-001;AVENIDA CRISTOVAO COLOMBO, 1800 - FLORESTA;;ATIVO
3008;4317608;431760;461;Metropolitana;5;REGIÃO 05 - BONS VENTOS;18ª CRS;Santo Antônio da Patrulha;6389104;HOSPITAL SANTO ANTONIO DA PATRULHA;;MUNICIPIO DE SANTO ANTONIO DA PATRULHA;5;HOSPITAL GERAL;ENTIDADES SEM FINS LUCRATIVOS;ESTADUAL;-29.81541;-50.515672;Hospital; ;95500-000;RUA MARECHAL FLORIANO PEIXOTO, 732 - CIDADE ALTA;;ATIVO
3011;4314902;431490;466;Metropolitana;10;REGIÃO 10 - CAPITAL E VALE DO GRAVATAÍ;01ª CRS;Porto Alegre;7349165;CENTRO DE OLHOS HOSPITAL DIA;;HOSPITAL CENTRO DE OLHOS LTDA;62;HOSPITAL/DIA - ISOLADO;ENTIDADES EMPRESARIAIS;MUNICIPAL;-30.0390901;-51.1731478;Hospital;;91310-000;AV PROTASIO ALVES, 3811 - PETROPOLIS;;ATIVO
3017;4307906;430790;482;Serra;26;REGIÃO 26 - UVA VALE;05ª CRS;Farroupilha;2240335;HOSPITAL SAO CARLOS;;HOSPITAL BENEFICENTE SAO CARLOS;5;HOSPITAL GERAL;ENTIDADES SEM FINS LUCRATIVOS;MUNICIPAL;-29.226812;-51.34927;Hospital; ;95180-000;RUA DA REPUBLICA, 51 - CENTRO;10.0;ATIVO
3041;4321956;432195;476;Norte;20;REGIÃO 20 - ROTA DA PRODUÇÃO;15ª CRS;Trindade do Sul;2235366;SOCIEDADE CULTURAL E BENEFICENTE SANTA ROSA DE LIMA;;ASPIAZU FILHAS CIA LTDA;5;HOSPITAL GERAL;ENTIDADES EMPRESARIAIS;DUPLA;-27.521798;-52.88745;Hospital;CASA;99615-000;RUA CABIUNA, 82 - CENTRO;;ATIVO
3042;4306452;430645;485;Vales;29;REGIÃO 29 - VALES E MONTANHAS;16ª CRS;Dois Lajeados;2241013;HOSPITAL DE CARIDADE SAO ROQUE DOIS LAJEADOS;;HOSPITAL DE CARIDADE SAO ROQUE;5;HOSPITAL GERAL;ENTIDADES SEM FINS LUCRATIVOS;MUNICIPAL;-28.985805;-51.836371;Hospital; ;99220-000;RUA JOAO RIBEIRO, 10 - CENTRO;;ATIVO
3069;4314902;431490;466;Metropolitana;10;REGIÃO 10 - CAPITAL E VALE DO GRAVATAÍ;01ª CRS;Porto Alegre;7989954;HOSPITAL GERAL DE PORTO ALEGRE;;HOSPITAL MILITAR DE AREA DE PORTO ALEGRE;5;HOSPITAL GERAL;ADMINISTRAÇÃO PÚBLICA;MUNICIPAL;-30.018552;-51.194128;Hospital; ;90440-190;AV MARILAND, 450 - AUXILIADORA;;ATIVO
3072;4314100;431410;473;Norte;17;REGIÃO 17 - PLANALTO;06ª CRS;Passo Fundo;4802802;HORGS;;HOSPITAL DE OLHOS DO RIO GRANDE DO SUL LTDA;7;HOSPITAL ESPECIALIZADO;ENTIDADES EMPRESARIAIS;MUNICIPAL;-28.2596102;-52.4138534;Hospital;;99010080;RUA TEIXEIRA SOARES, 780 - CENTRO;;ATIVO
3083;4320909;432090;474;Norte;18;REGIÃO 18 - ARAUCÁRIAS;06ª CRS;Tapejara;2246740;HOSPITAL SANTO ANTONIO TAPEJARA;;HOSPITAL SANTO ANTONIO;5;HOSPITAL GERAL;ENTIDADES SEM FINS LUCRATIVOS;ESTADUAL;-28.066843;-52.014492;Hospital; ;99950-000;RUA TRANQUILO BASSO, 270 - CENTRO;;ATIVO
3086;4320008;432000;464;Metropolitana;8;REGIÃO 08 - VALE DO CAÍ E METROPOLITANA;01ª CRS;Sapucaia do Sul;2232162;HOSPITAL MUNICIPAL GETULIO VARGAS SAPUCAIA DO SUL;;FUNDACAO HOSPITAL MUNICIPAL GETULIO VARGAS;5;HOSPITAL GERAL;ADMINISTRAÇÃO PÚBLICA;MUNICIPAL;-29.823462;-51.165855;Hospital; ;93210-180;RUA PINHEIRO MACHADO, 331 - DIEHL;13.0;ATIVO
3142;4304606;430460;464;Metropolitana;8;REGIÃO 08 - VALE DO CAÍ E METROPOLITANA;01ª CRS;Canoas;2232111;CLINICA SANTA THECLA;5130752217;CLINICA SANTA THECLA SOCIEDADE SIMPLES LTDA;7;HOSPITAL ESPECIALIZADO;ENTIDADES EMPRESARIAIS;MUNICIPAL;-29.903832;-51.174991;Hospital;;92410-392;AVENIDA BOQUEIRAO, 320 - IGARA;;ATIVO
3204;4314902;431490;466;Metropolitana;10;REGIÃO 10 - CAPITAL E VALE DO GRAVATAÍ;01ª CRS;Porto Alegre;2265060;HOSPITAL CRISTO REDENTOR SA;;HOSPITAL CRISTO REDENTOR SA;7;HOSPITAL ESPECIALIZADO;ENTIDADES EMPRESARIAIS;MUNICIPAL;-30.010014;-51.159402;Hospital; ;91040-000;RUA DOMINGOS RUBBO, 20 - CRISTO REDENTOR;47.0;ATIVO
3214;4316907;431690;457;Centro-Oeste;1;REGIÃO 01 - VERDES CAMPOS;04ª CRS;Santa Maria;7093322;ZAMI DIAGNOSTICOS;;CANS DIAGNOSTICOS LTDA;5;HOSPITAL GERAL;ENTIDADES EMPRESARIAIS;MUNICIPAL;-29.6944441;-53.7778016;Hospital;SALA 1;97095-465;AV JOAO LUIZ POZZOBOM, 1024 - KM03;;ATIVO
3219;4322608;432260;484;Vales;28;REGIÃO 28 - VINTE E OITO;13ª CRS;Venâncio Aires;4479823;HOSPITAL SAO SEBASTIAO MARTIR FILIAL 01;;HOSPITAL SAO SEBASTIAO MARTIR;5;HOSPITAL GERAL;ENTIDADES SEM FINS LUCRATIVOS;MUNICIPAL;-29.6127379;-52.1805092;Hospital;;95800000;RUA VOLUNTARIOS DA PATRIA, 2500 - CRUZEIRO;;ATIVO
3227;4317400;431740;458;Centro-Oeste;2;REGIÃO 02 - ENTRE RIOS;04ª CRS;Santiago;2244357;HOSPITAL DE CARIDADE DE SANTIAGO;;HOSPITAL DE CARIDADE DE SANTIAGO;5;HOSPITAL GERAL;ENTIDADES SEM FINS LUCRATIVOS;ESTADUAL;-29.197638;-54.866164;Hospital; ;97700-000;RUA SETE DE SETEMBRO, 570 - CENTRO;10.0;ATIVO
3239;4304705;430470;473;Norte;17;REGIÃO 17 - PLANALTO;06ª CRS;Carazinho;2262274;HOSPITAL COMUNITARIO DE CARAZINHO;;HOSPITAL DE CARIDADE DE CARAZINHO;5;HOSPITAL GERAL;ENTIDADES SEM FINS LUCRATIVOS;MUNICIPAL;-28.284364;-52.795519;Hospital; ;99500-000;RUA GENERAL CAMARA, 70 - CENTRO;7.0;ATIVO
3243;4304606;430460;464;Metropolitana;8;REGIÃO 08 - VALE DO CAÍ E METROPOLITANA;01ª CRS;Canoas;211419;HOSPITAL DE AERONAUTICA DE CANOAS;;COMANDO DA AERONAUTICA;5;HOSPITAL GERAL;ADMINISTRAÇÃO PÚBLICA;MUNICIPAL;-29.9590904;-51.1768096;Hospital;A N 100;92320010;AVENIDA GUILHERME SCHELL, 950 - FATIMA;;ATIVO
3247;4321105;432110;465;Metropolitana;9;REGIÃO 09 - CARBONÍFERA/COSTA DOCE;01ª CRS;Tapes;2257572;HOSPITAL NOSSA SENHORA DO CARMO;;ASSOCIACAO HOSPITALAR VILA NOVA;5;HOSPITAL GERAL;ENTIDADES SEM FINS LUCRATIVOS;DUPLA;-30.6725242;-51.3990163;Hospital;;96760000;RUA EDMUNDO DREHER, 368 - CENTRO;;ATIVO
3248;4321808;432180;470;Missioneira;14;REGIÃO 14 - FRONTEIRA NOROESTE;14ª CRS;Três de Maio;2250837;HOSPITAL SAO VICENTE DE PAULO TRES DE MAIO;;ASSOCIACAO DE LITERATURA E BENEFICENCIA;5;HOSPITAL GERAL;ENTIDADES SEM FINS LUCRATIVOS;ESTADUAL;-27.780406;-54.236851;Hospital;PREDIO;98910-000;RUA OSVALDO CRUZ, 381 - CENTRO;6.0;ATIVO
3278;4305207;430520;467;Missioneira;11;REGIÃO 11 - SETE POVOS DAS MISSÕES;12ª CRS;Cerro Largo;2259869;HOSPITAL POLICLINICA SANTO INACIO;;ASSOCIACAO HOSPITALAR DE CARIDADE SERRO AZUL;5;HOSPITAL GERAL;ENTIDADES SEM FINS LUCRATIVOS;ESTADUAL;-28.153794;-54.737256;Hospital; ;97900-000;RUA SETE DE SETEMBRO, 743 - CENTRO;;ATIVO
3286;4305108;430510;479;Serra;23;REGIÃO 23 - CAXIAS E HORTÊNSIAS;05ª CRS;Caxias do Sul;2223538;HOSPITAL GERAL;;FUNDACAO UNIVERSIDADE DE CAXIAS DO SUL;5;HOSPITAL GERAL;ENTIDADES SEM FINS LUCRATIVOS;MUNICIPAL;-29.161092;-51.156235;Hospital; ;95070-561;RUA PROFESSOR ANTONIO VIGNOLLI, 255 - PETROPOLIS;10.0;ATIVO
3316;4302451;430245;485;Vales;29;REGIÃO 29 - VALES E MONTANHAS;16ª CRS;Boqueirão do Leão;2252058;HOSP DR ANUAR ELIAS AESSE BOQUEIRAO DO LEAO;;ASSOCIACAO BENEF HOSP SAO RAFAEL ARCANJO;5;HOSPITAL GERAL;ENTIDADES SEM FINS LUCRATIVOS;MUNICIPAL;-29.299498;-52.424009;Hospital; ;95920-000;TRAVESSA EUGENIO FRANCIOSI, 940 - CENTRO;;ATIVO
3321;4304408;430440;479;Serra;23;REGIÃO 23 - CAXIAS E HORTÊNSIAS;05ª CRS;Canela;2235609;HOSPITAL DE CANELA;;HOSPITAL DE CARIDADE DE CANELA;5;HOSPITAL GERAL;ENTIDADES SEM FINS LUCRATIVOS;MUNICIPAL;-29.360876;-50.808367;Hospital; ;95680-000;AVENIDA VISCONDE DE MAUA, 143 - CENTRO;;ATIVO
3322;4310207;431020;469;Missioneira;13;REGIÃO 13 - DIVERSIDADE;17ª CRS;Ijuí;3506959;HOSPITAL UNIMED IJUI;;UNIMED NOROESTE RS SOCIEDADE COOP DE ASSIS A SAUDE LTDA;5;HOSPITAL GERAL;ENTIDADES EMPRESARIAIS;ESTADUAL;-28.395961;-53.900382;Hospital; ;98700-000;RUA PEDRO HAMMARSTRON, 287 - HAMMRSTRON;6.0;ATIVO
3323;4314902;431490;466;Metropolitana;10;REGIÃO 10 - CAPITAL E VALE DO GRAVATAÍ;01ª CRS;Porto Alegre;5281970;CLINICA GRAMADO;;CLINICA GRAMADO SOCIEDADE SIMPLES LTDA;7;HOSPITAL ESPECIALIZADO;ENTIDADES EMPRESARIAIS;MUNICIPAL;-30.0567536;-51.2134146;Hospital;;90880460;AVENIDA FLORIANOPOLIS, 421 - AZENHA;;ATIVO
3332;4315354;431535;468;Missioneira;12;REGIÃO 12 - PORTAL DAS MISSÕES;09ª CRS;Quinze de Novembro;2263831;ASSOCIACAO HOSPITALAR 15 DE NOVEMBRO;;ASSOCIACAO HOSPITALAR 15 DE NOVEMBRO;5;HOSPITAL GERAL;ENTIDADES SEM FINS LUCRATIVOS;ESTADUAL;-28.740791;-53.091441;Hospital; ;98230-000;RUA EDMUNDO PRANTE, 524 - CENTRO;;ATIVO
3340;4306908;430690;483;Vales;27;REGIÃO 27 - JACUÍ CENTRO;08ª CRS;Encruzilhada do Sul;2234432;HOSPITAL SANTA BARBARA;;CONG IRMAS SERVAS IMACULADA CONC VIRGEM MARIA;5;HOSPITAL GERAL;ENTIDADES SEM FINS LUCRATIVOS;ESTADUAL;-30.540976;-52.523658;Hospital; ;96610-000;RUA CORONEL HONORIO CARVALHO, 878 - CENTRO;;ATIVO
3360;4318705;431870;463;Metropolitana;7;REGIÃO 07 - VALE DOS SINOS;01ª CRS;São Leopoldo;2232022;HOSPITAL CENTENARIO;;FUNDACAO HOSPITAL CENTENARIO;5;HOSPITAL GERAL;ADMINISTRAÇÃO PÚBLICA;MUNICIPAL;-29.776341;-51.148704;Hospital; ;93020-080;AV THEODOMIRO PORTO DA FONSECA, 799 - FIAO;10.0;ATIVO
3362;4316204;431620;476;Norte;20;REGIÃO 20 - ROTA DA PRODUÇÃO;15ª CRS;Rondinha;2235447;HOSPITAL PADRE EUGENIO;;SOCIEDADE HOSPITALAR BENEFICENTE PE EUGENIO MEDICHESCHI;5;HOSPITAL GERAL;ENTIDADES SEM FINS LUCRATIVOS;ESTADUAL;-27.825389;-52.913507;Hospital; ;99590-000;ESTRADA GERAL CACHOEIRA BRANCA KM 01, 174 - CENTRO;;ATIVO
3363;4309209;430920;466;Metropolitana;10;REGIÃO 10 - CAPITAL E VALE DO GRAVATAÍ;01ª CRS;Gravataí;2232049;HOSPITAL DOM JOAO BECKER;;SOCIEDADE EDUCACAO E CARIDADE;5;HOSPITAL GERAL;ENTIDADES SEM FINS LUCRATIVOS;MUNICIPAL;-29.94057;-50.994036;Hospital; ;94010-001;AV DR JOSE LOUREIRO DA SILVA, 1561 - CENTRO;10.0;ATIVO
3402;4306007;430600;469;Missioneira;13;REGIÃO 13 - DIVERSIDADE;17ª CRS;Crissiumal;2708000;HOSPITAL DE CARIDADE DE CRISSIUMAL;;HOSPITAL DE CARIDADE DE CRISSIUMAL;5;HOSPITAL GERAL;ENTIDADES SEM FINS LUCRATIVOS;ESTADUAL;-27.495573;-54.098868;Hospital; ;98640-000;RUA REDENTORA, 81 - CENTRO;;ATIVO
3403;4307104;430710;477;Sul;21;REGIÃO 21 - SUL;03ª CRS;Herval;2233436;HOSPITAL NOSSA SENHORA DA GLORIA;;LIGA DE ASSISTENCIA SOCIAL HOSPITAL NOSSA SENHORA DA GLORIA;5;HOSPITAL GERAL;ENTIDADES SEM FINS LUCRATIVOS;ESTADUAL;-32.029879;-53.392129;Hospital; ;96310-000;AVENIDA GETULIO VARGAS, 427 - CENTRO;;ATIVO
3412;4319000;431900;482;Serra;26;REGIÃO 26 - UVA VALE;05ª CRS;São Marcos;2241226;HOSPITAL BENEFICENTE SAO JOAO BOSCO;;HOSPITAL BENEFICENTE SAO JOAO BOSCO;5;HOSPITAL GERAL;ENTIDADES SEM FINS LUCRATIVOS;MUNICIPAL;-28.971553;-51.068305;Hospital; ;95190-000;R OSVALDO ARANHA, 978 - CENTRO;;ATIVO
3426;4306205;430620;485;Vales;29;REGIÃO 29 - VALES E MONTANHAS;16ª CRS;Cruzeiro do Sul;2252074;HOSPITAL SAO GABRIEL ARCANJO;;SOCIEDADE HOSPITALAR SAO GABRIEL ARCANJO;5;HOSPITAL GERAL;ENTIDADES SEM FINS LUCRATIVOS;MUNICIPAL;-29.513368;-51.985689;Hospital; ;95930-000;RUA GENERAL NETO, 192 - CENTRO;;ATIVO
3442;4320206;432020;471;Norte;15;REGIÃO 15 - CAMINHO DAS ÁGUAS;02ª CRS;Seberi;2228610;HOSPITAL PIO XII SEBERI;;FUNDACAO HOSPITALAR PIO XII;5;HOSPITAL GERAL;ENTIDADES SEM FINS LUCRATIVOS;ESTADUAL;-27.478821;-53.405516;Hospital;PREDIO;98380-000;TRAVESSA ROBERTO SCHIMIDT, 73 - CENTRO;;ATIVO
3445;4304606;430460;464;Metropolitana;8;REGIÃO 08 - VALE DO CAÍ E METROPOLITANA;01ª CRS;Canoas;2232014;HOSPITAL NOSSA SRA DAS GRACAS CANOAS;;ASSOCIACAO BENEFICENTE DE CANOAS;5;HOSPITAL GERAL;ENTIDADES SEM FINS LUCRATIVOS;MUNICIPAL;-29.927175;-51.161345;Hospital; ;92010-000;RUA SANTOS FERREIRA, 1864 - MARECHAL RONDON;;ATIVO
3446;4318804;431880;477;Sul;21;REGIÃO 21 - SUL;03ª CRS;São Lourenço do Sul;2233371;HOSPITAL DA RESERVA;;ASSOCIACAO BENEFICIENTE SAO JOAO DA RESERVA;5;HOSPITAL GERAL;ENTIDADES SEM FINS LUCRATIVOS;ESTADUAL;-31.295598;-52.151385;Hospital;6 DISTRITO;96170-000;SAO JOAO DA RESERVA, 1 - DISTRITO;;ATIVO
3449;4306106;430610;468;Missioneira;12;REGIÃO 12 - PORTAL DAS MISSÕES;09ª CRS;Cruz Alta;2263858;HOSPITAL DE CARIDADE SAO VICENTE DE PAULO;;ASSOCIACAO DAS DAMAS DE CARIDADE;5;HOSPITAL GERAL;ENTIDADES SEM FINS LUCRATIVOS;ESTADUAL;-28.632214;-53.606991;Hospital; ;98005-970;RUA VENANCIO AIRES, 163 - CENTRO;;ATIVO
3453;4314902;431490;466;Metropolitana;10;REGIÃO 10 - CAPITAL E VALE DO GRAVATAÍ;01ª CRS;Porto Alegre;3269469;CLINICA LAVINSKY;;CLINICA LAVINSKY OTORRINOLARINGOLOGIA LTDA;62;HOSPITAL/DIA - ISOLADO;ENTIDADES EMPRESARIAIS;MUNICIPAL;-30.0240476;-51.1982993;Hospital;;90440051;RUA QUINTINO BOCAIUVA, 673 - MOINHOS DE VENTO;;ATIVO
3454;4305801;430580;476;Norte;20;REGIÃO 20 - ROTA DA PRODUÇÃO;15ª CRS;Constantina;3378691;HOSPITAL DA COMUNIDADE AHCROS CONSTANTINA;;ASSOCIACAO HOSPITALAR COMUNITARIA REGIONAL DE SAUDE;5;HOSPITAL GERAL;ENTIDADES SEM FINS LUCRATIVOS;ESTADUAL;-27.735845;-52.990757;Hospital;CASA;99680-000;RUA NEREU RAMOS, 1005 - CENTRO;;ATIVO
3484;4322400;432240;459;Centro-Oeste;3;REGIÃO 03 - FRONTEIRA OESTE;10ª CRS;Uruguaiana;2248190;HOSPITAL GERAL SANTA CASA DE URUGUAIANA;;SANTA CASA DE CARIDADE DE URUGUAIANA;5;HOSPITAL GERAL;ENTIDADES SEM FINS LUCRATIVOS;ESTADUAL;-29.772952;-57.083776;Hospital; ;97502-765;DOMINGOS DE ALMEIDA, 3801 - SAO MIGUEL;16.0;ATIVO
3493;4319604;431960;457;Centro-Oeste;1;REGIÃO 01 - VERDES CAMPOS;04ª CRS;São Sepé;2244322;HOSPITAL SANTO ANTONIO SAO SEPE;;ASSOCIACAO BENEFICENTE HOSPITAL SANTO ANTONIO;5;HOSPITAL GERAL;ENTIDADES SEM FINS LUCRATIVOS;ESTADUAL;-30.170026;-53.563671;Hospital; ;97340-000;RUA CEL CHANANECO, 600 - CENTRO;;ATIVO
3495;4316709;431670;468;Missioneira;12;REGIÃO 12 - PORTAL DAS MISSÕES;09ª CRS;Santa Bárbara do Sul;2263890;HOSPITAL SANTA BARBARA BENEFICENTE;;HOSPITAL SANTA BARBARA BENEFICENTE;5;HOSPITAL GERAL;ENTIDADES SEM FINS LUCRATIVOS;ESTADUAL;-28.363275;-53.260322;Hospital; ;98240-000;RUA DON CONRADO, 764 - CENTRO;;ATIVO
3503;4308201;430820;482;Serra;26;REGIÃO 26 - UVA VALE;05ª CRS;Flores da Cunha;2241145;HOSPITAL FATIMA;;SOCIEDADE BENEFICENTE HOSPITALAR NOSSA SENHORA DE FATIMA;5;HOSPITAL GERAL;ENTIDADES SEM FINS LUCRATIVOS;MUNICIPAL;-29.028428;-51.177822;Hospital; ;95270-000;RUA ERNESTO ALVES, 1980 - CENTRO;;ATIVO
3506;4321709;432170;462;Metropolitana;6;REGIÃO 06 - VALE DO PARANHANA E COSTA SERRA;01ª CRS;Três Coroas;2257467;HOSPITAL DR OSWALDO DIESEL;;FUNDACAO HOSPITALAR DR OSWALDO DIESEL;5;HOSPITAL GERAL;ENTIDADES SEM FINS LUCRATIVOS;ESTADUAL;-29.5179;-50.778481;Hospital; ;95660-000;RUA 12 DE MAIO, 555 - CENTRO;;ATIVO
3517;4303301;430330;467;Missioneira;11;REGIÃO 11 - SETE POVOS DAS MISSÕES;12ª CRS;Caibaté;2259850;HOSPITAL ROQUE GONZALES CAIBATE;;ASSOCIACAO HOSPITALAR ROQUE GONZALES;5;HOSPITAL GERAL;ENTIDADES SEM FINS LUCRATIVOS;ESTADUAL;-28.290859;-54.63573;Hospital; ;97930-000;AVN SANTA LUCIA, 1479 - CENTRO;;ATIVO
3521;4322905;432290;472;Norte;16;REGIÃO 16 - ALTO URUGUAI GAÚCHO;11ª CRS;Viadutos;2249537;HOSPITAL N S DA POMPEIA VIADUTOS;;SOCIEDADE HOSPITALAR N SENHORA DA POMPEIA;5;HOSPITAL GERAL;ENTIDADES SEM FINS LUCRATIVOS;ESTADUAL;-27.569162;-52.019328;Hospital; ;99820-000;R ANGELO ALEGRETI, 108 - CENTRO;;ATIVO
3523;4319406;431940;457;Centro-Oeste;1;REGIÃO 01 - VERDES CAMPOS;04ª CRS;São Pedro do Sul;2244314;HOSPITAL MUNICIPAL DE SAO PEDRO DO SUL;;PREFEITURA MUNICIPAL DE SAO PEDRO DO SUL;5;HOSPITAL GERAL;ENTIDADES SEM FINS LUCRATIVOS;ESTADUAL;-29.613579;-54.185453;Hospital; ;97400-000;RUA DORVAL LAMPERT, 980 - CENTRO;;ATIVO
3535;4319158;431915;467;Missioneira;11;REGIÃO 11 - SETE POVOS DAS MISSÕES;12ª CRS;São Miguel das Missões;2259877;HOSPITAL SAO MIGUEL ARCANJO;;ASSOCIACAO HOSPITALAR DE CARIDADE BENEFICENTE SAO MIGUEL;5;HOSPITAL GERAL;ENTIDADES SEM FINS LUCRATIVOS;ESTADUAL;-28.54649;-54.550002;Hospital; ;98865-000;RUA SANTO ANGELO, 519 - CENTRO;;ATIVO
3544;4314001;431400;481;Serra;25;REGIÃO 25 - VINHEDOS E BASALTO;05ª CRS;Paraí;2241218;HOSPITAL BENEFICENTE NOSSA SENHORA APARECIDA PARAÍ;;HOSPITAL BENEFICENTE NOSSA SENHORA APARECIDA;5;HOSPITAL GERAL;ENTIDADES SEM FINS LUCRATIVOS;MUNICIPAL;-28.593467;-51.786997;Hospital; ;95360-000;RUA HENRIQUE LENZI, 15 - CENTRO;;ATIVO
3553;4310306;431030;485;Vales;29;REGIÃO 29 - VALES E MONTANHAS;16ª CRS;Ilópolis;2252139;HOSPITAL BENEFICENTE LEONILDA BRUNET;;CONGREGACAO DAS IRMAS SERVAS DA IMAC CONCEICAO DA VIRGEM MA;5;HOSPITAL GERAL;ENTIDADES SEM FINS LUCRATIVOS;MUNICIPAL;-28.931145;-52.123582;Hospital; ;95990-000;RUA JOAO TOMASINI, 495 - CENTRO;;ATIVO
3566;4304606;430460;464;Metropolitana;8;REGIÃO 08 - VALE DO CAÍ E METROPOLITANA;01ª CRS;Canoas;3508528;HOSPITAL UNIVERSITARIO ULBRA;;ASSOCIACAO EDUCADORA SAO CARLOS AESC;5;HOSPITAL GERAL;ADMINISTRAÇÃO PÚBLICA;MUNICIPAL;-29.88642461;-51.16604238;Hospital; ;92425-900;AVENIDA FARROUPILHA, 8001 - SAO JOSE;26.0;ATIVO
3569;4318408;431840;465;Metropolitana;9;REGIÃO 09 - CARBONÍFERA/COSTA DOCE;01ª CRS;São Jerônimo;6424236;HCSJ HOSPITAL DE CARIDADE SAO JERONIMO;;ASSOCIACAO DOS FUNCIONARIOS PUBLICOS DO ESTADO DO RGSUL;5;HOSPITAL GERAL;ENTIDADES SEM FINS LUCRATIVOS;ESTADUAL;-29.959743;-51.715483;Hospital; ;96700-000;RUA RIO BRANCO, 1008 - BELA VISTA;;ATIVO
3571;4311106;431110;458;Centro-Oeste;2;REGIÃO 02 - ENTRE RIOS;04ª CRS;Jaguari;2244152;HOSPITAL DE CARIDADE DE JAGUARI;;HOSPITAL DE CARIDADE DR ASTROGILDO DE AZEVEDO;5;HOSPITAL GERAL;ENTIDADES SEM FINS LUCRATIVOS;ESTADUAL;-29.493237;-54.690892;Hospital; ;97760-000;RUA SETE DE SETEMBRO, 910 - CENTRO;;ATIVO
3576;4316808;431680;484;Vales;28;REGIÃO 28 - VINTE E OITO;13ª CRS;Santa Cruz do Sul;2254964;HOSPITAL SANTA CRUZ;;ASSOCIACAO PROENSINO EM SANTA CRUZ DO SUL;5;HOSPITAL GERAL;ENTIDADES SEM FINS LUCRATIVOS;MUNICIPAL;-29.720055;-52.426561;Hospital; ;96810-072;RUA FERNANDO ABOTT, 174 - CENTRO;10.0;ATIVO
3580;4304309;430430;470;Missioneira;14;REGIÃO 14 - FRONTEIRA NOROESTE;14ª CRS;Cândido Godói;2250675;HOSPITAL SANTO AFONSO;;ASSOCIACAO HOSPITALAR SANTO AFONSO;5;HOSPITAL GERAL;ENTIDADES SEM FINS LUCRATIVOS;DUPLA;-27.948539;-54.754491;Hospital;CASA;98970-000;RUA JOAO MAGALHAES, 146 - CENTRO;;ATIVO
3581;4314902;431490;466;Metropolitana;10;REGIÃO 10 - CAPITAL E VALE DO GRAVATAÍ;01ª CRS;Porto Alegre;5026253;HOSPITAL PORTO ALEGRE;;ASSSOCIACAO DOS FUNCIONARIOS MUNICIPAIS DE PORTO ALEGRE;5;HOSPITAL GERAL;ENTIDADES SEM FINS LUCRATIVOS;MUNICIPAL;-30.045211;-51.216909;Hospital; ;90050-010;RUA ANTONIO FRANCISCO DS ROCHA, 100 - AZENHA;17.0;ATIVO
3582;4307708;430770;464;Metropolitana;8;REGIÃO 08 - VALE DO CAÍ E METROPOLITANA;01ª CRS;Esteio;2232030;HOSPITAL SAO CAMILO ESTEIO;;FUNDACAO DE SAUDE PUBLICA SAO CAMILO DE ESTEIO;5;HOSPITAL GERAL;ADMINISTRAÇÃO PÚBLICA;MUNICIPAL;-29.839161;-51.161425;Hospital; ;93260-460;RUA CASTRO ALVES, 948 - TEOPOLIS;8.0;ATIVO
3586;4308607;430860;481;Serra;25;REGIÃO 25 - VINHEDOS E BASALTO;05ª CRS;Garibaldi;2257645;HOSPITAL SAO PEDRO;;HOSPITAL BENEFICENTE SAO PEDRO;5;HOSPITAL GERAL;ENTIDADES SEM FINS LUCRATIVOS;MUNICIPAL;-29.253891;-51.533831;Hospital; ;95720-000;RUA 31 DE OUTUBRO, 7 - CENTRO;;ATIVO
3627;4306304;430630;473;Norte;17;REGIÃO 17 - PLANALTO;06ª CRS;David Canabarro;2246937;HOSPITAL SAO JOSE - DAVID CANABARRO;;SOCIEDADE HOSPITALAR BENEFICENTE SAO JOSE;5;HOSPITAL GERAL;ENTIDADES SEM FINS LUCRATIVOS;ESTADUAL;-28.388485;-51.848215;Hospital; ;99980-000;RUA OCTAVIO BERNARDI, 393 - CENTRO;;ATIVO
3642;4303806;430380;472;Norte;16;REGIÃO 16 - ALTO URUGUAI GAÚCHO;11ª CRS;Campinas do Sul;2249529;HOSPITAL MUNICIPAL DE CAMPINAS DO SUL;;PREFEITURA MUNICIPAL DE CAMPINAS DO SUL;5;HOSPITAL GERAL;ADMINISTRAÇÃO PÚBLICA;ESTADUAL;-27.717757;-52.62033;Hospital; ;99660-000;R ATILIO GUSBERTI, 771 - CENTRO;;ATIVO
